,City,Latitude,Longitude,Maximum Temperature,Humidity,Cloudiness,Wind Speed,Country,Date
0,Daru,-9.0763,143.2092,76.64,91,88,8.25,PG,1618855570
1,Punta Arenas,-53.15,-70.9167,51.8,71,20,2.3,CL,1618855220
2,Millinocket,45.6573,-68.7098,59.0,36,75,8.05,US,1618855070
3,Pizarro,4.9533,-77.366,83.07,73,83,8.97,CO,1618855570
4,Hermanus,-34.4187,19.2345,63.0,79,100,14.0,ZA,1618855571
5,Airai,-8.9266,125.4092,57.54,87,92,1.68,TL,1618855564
6,Cape Town,-33.9258,18.4232,64.99,63,20,9.22,ZA,1618855571
7,Drumheller,51.4617,-112.7101,41.0,52,83,11.5,CA,1618855530
8,Hobart,-42.8794,147.3294,60.8,51,90,12.66,AU,1618854950
9,Albany,42.6001,-73.9662,59.0,48,70,1.99,US,1618854911
10,Cabedelo,-6.9811,-34.8339,84.2,70,75,9.22,BR,1618855572
11,Mataura,-46.1927,168.8643,51.01,81,13,7.0,NZ,1618855404
12,Zhigansk,66.7697,123.3711,-1.59,100,59,8.41,RU,1618855573
13,Soke,13.598,-5.9386,102.99,9,39,7.65,ML,1618855573
14,Saint-Pierre,-21.3393,55.4781,75.2,94,90,8.16,RE,1618855326
15,Saint George,37.1041,-113.5841,71.01,14,1,5.01,US,1618855209
16,Hilo,19.7297,-155.09,77.0,65,75,4.61,US,1618855574
17,Vaini,-21.2,-175.2,73.4,94,40,4.61,TO,1618855200
18,Khovd,48.0056,91.6419,47.37,38,95,6.17,MN,1618855575
19,Rikitea,-23.1203,-134.9692,77.81,72,0,9.42,PF,1618855209
20,New Norfolk,-42.7826,147.0587,57.99,70,98,3.0,AU,1618855294
21,Poya,-21.35,165.15,74.75,91,84,2.59,NC,1618855575
22,Palkino,57.5409,28.0126,55.4,35,0,4.47,RU,1618855575
23,Flinders,-34.5833,150.8552,51.01,80,14,1.01,AU,1618855576
24,Cururupu,-1.8283,-44.8683,73.6,97,100,4.07,BR,1618855576
25,Dingle,10.9995,122.6711,76.75,83,100,3.49,PH,1618855321
26,Yellowknife,62.456,-114.3525,30.0,74,20,4.61,CA,1618855213
27,Auburn,47.3073,-122.2284,66.0,51,20,1.59,US,1618855514
28,Ndélé,8.4109,20.6473,87.6,32,100,3.98,CF,1618855577
29,Wajima,37.4,136.9,53.87,74,2,23.24,JP,1618855577
30,Port Hardy,50.6996,-127.4199,51.8,76,40,2.3,CA,1618855397
31,Atuona,-9.8,-139.0333,79.38,80,34,18.37,PF,1618855227
32,Adrar,20.5022,-10.0711,93.76,5,0,2.89,MR,1618855577
33,Kaitangata,-46.2817,169.8464,46.99,78,26,4.0,NZ,1618855323
34,Hofn,64.2539,-15.2082,41.0,65,40,14.97,IS,1618855211
35,Jamestown,42.097,-79.2353,60.01,43,75,8.05,US,1618854912
36,Marzuq,14.4,46.4667,74.89,52,100,5.17,YE,1618855578
37,Camaná,-16.6228,-72.7111,72.72,73,16,8.84,PE,1618855578
38,Tumut,-35.3,148.2167,46.4,87,75,6.91,AU,1618855579
39,Ushuaia,-54.8,-68.3,44.6,93,75,16.11,AR,1618855006
40,Port Alfred,-33.5906,26.891,64.17,74,100,9.17,ZA,1618855222
41,Kapaa,22.0752,-159.319,73.4,78,20,4.61,US,1618855480
42,Berdigestyakh,62.0989,126.6992,2.75,98,99,4.0,RU,1618855579
43,Hauterive,46.0901,3.4459,57.2,41,0,8.05,FR,1618855579
44,Nikolskoye,59.7035,30.7861,48.2,29,0,8.95,RU,1618855267
45,Makakilo City,21.3469,-158.0858,75.99,78,90,5.75,US,1618855296
46,Carnarvon,-24.8667,113.6333,73.83,59,0,23.98,AU,1618855208
47,Olafsvik,64.8945,-23.7142,36.27,56,91,17.07,IS,1618855580
48,Port Elizabeth,-33.918,25.5701,59.0,88,75,2.3,ZA,1618855262
49,Busselton,-33.65,115.3333,55.99,98,92,8.16,AU,1618855202
50,Karpathos,35.507,27.2132,62.6,67,20,26.46,GR,1618855581
51,Lompoc,34.6391,-120.4579,63.0,87,2,11.5,US,1618855359
52,Vardø,70.3705,31.1107,44.6,42,0,17.27,NO,1618855264
53,Tura,25.5198,90.2201,72.27,65,0,8.03,IN,1618855581
54,Bredasdorp,-34.5322,20.0403,60.8,77,100,16.11,ZA,1618855263
55,Fatehpur,25.9333,80.8,87.46,12,1,4.61,IN,1618855581
56,Channel-Port aux Basques,47.5702,-59.1367,37.18,95,100,13.8,CA,1618855582
57,Kahului,20.8947,-156.47,73.0,94,1,6.91,US,1618855328
58,Necochea,-38.5473,-58.7368,79.0,59,14,21.0,AR,1618855582
59,Hithadhoo,-0.6,73.0833,83.44,63,77,3.96,MV,1618855583
60,Bonthe,7.5264,-12.505,84.25,71,100,10.85,SL,1618855583
61,Rørvik,64.8621,11.2373,53.6,58,0,4.61,NO,1618855335
62,Campos Altos,-19.6961,-46.1714,74.7,52,19,8.03,BR,1618855583
63,Tabatinga,-4.2525,-69.9381,82.4,78,40,5.75,BR,1618855583
64,Cidreira,-30.1811,-50.2056,73.08,62,57,11.32,BR,1618855272
65,Avarua,-21.2078,-159.775,77.0,78,20,10.36,CK,1618855230
66,Preobrazheniye,42.9019,133.9064,46.54,60,0,11.97,RU,1618855584
67,Ribeira Grande,38.5167,-28.7,64.4,88,40,12.66,PT,1618855329
68,Severo-Kuril'sk,50.6789,156.125,37.33,97,100,19.95,RU,1618855259
69,Jizan,17.3333,42.6667,86.0,66,20,4.61,SA,1618855584
70,Ségou,13.4317,-6.2157,102.85,9,34,7.94,ML,1618855585
71,Mīzan Teferī,6.9833,35.5833,69.57,56,97,3.29,ET,1618855585
72,Castro,-24.7911,-50.0119,64.09,74,98,5.95,BR,1618855271
73,Santa Isabel Rio Negro,-0.4139,-65.0192,82.56,77,96,3.83,BR,1618855585
74,Yenagoa,4.9247,6.2642,82.35,76,91,5.23,NG,1618855586
75,Trabzon Province,40.9167,39.8333,62.6,72,90,4.61,TR,1618855586
76,Phra Phutthabat,14.7253,100.7954,84.0,87,86,4.0,TH,1618855586
77,Torbay,47.6666,-52.7314,46.4,71,75,12.66,CA,1618855297
78,Melfi,40.9965,15.6514,44.01,85,96,1.01,IT,1618855587
79,Nicoya,10.1483,-85.452,91.4,49,40,5.75,CR,1618855587
80,Puerto Ayora,-0.7393,-90.3518,80.6,78,40,13.8,EC,1618855238
81,Fuling,29.7022,107.3919,60.3,97,97,2.19,CN,1618855588
82,Auch,43.65,0.5833,62.01,35,23,3.0,FR,1618855393
83,Luoyang,34.6836,112.4536,58.3,92,100,5.5,CN,1618855588
84,Troy,42.6056,-83.1499,64.0,29,75,14.97,US,1618855589
85,Ilhabela,-23.7781,-45.3581,72.95,82,36,10.65,BR,1618855589
86,Laas,46.6166,10.7002,60.8,49,40,6.91,IT,1618855589
87,Esperance,-33.8667,121.9,55.4,100,40,9.19,AU,1618855275
88,Bengkulu,-3.8004,102.2655,76.3,86,100,3.36,ID,1618855308
89,Meylan,45.2199,5.7901,46.0,59,48,4.0,FR,1618855590
90,Provideniya,64.3833,-173.3,25.74,83,80,7.34,RU,1618855305
91,Kuching,1.55,110.3333,73.4,100,40,1.14,MY,1618855590
92,Buala,-8.145,159.5921,81.0,81,83,7.18,SB,1618855590
93,Bluff,-46.6,168.3333,51.01,81,36,5.99,NZ,1618855206
94,Tuktoyaktuk,69.4541,-133.0374,21.2,86,40,6.91,CA,1618855217
95,Banes,20.9625,-75.7186,96.8,26,20,18.41,CU,1618855591
96,Killybegs,54.6333,-8.45,48.2,93,90,5.75,IE,1618855591
97,Bucerías,20.75,-105.3333,78.8,65,20,10.36,MX,1618855354
98,Griffith,41.5284,-87.4237,45.0,87,90,8.05,US,1618855591
99,Saskylakh,71.9167,114.0833,-15.16,100,90,4.14,RU,1618855307
100,Muros,42.7762,-9.0603,61.0,62,82,2.19,ES,1618855592
101,Hasaki,35.7333,140.8333,44.6,93,20,10.6,JP,1618855239
102,Mar del Plata,-38.0023,-57.5575,75.2,53,20,14.97,AR,1618855150
103,Mēga,4.05,38.3,61.39,84,66,10.76,ET,1618855593
104,Mityana,0.4175,32.0228,64.83,97,98,2.46,UG,1618855593
105,Ghanzi,-21.5667,21.7833,65.89,25,0,7.16,BW,1618855593
106,Talcahuano,-36.7167,-73.1167,60.8,82,90,14.97,CL,1618855593
107,Dikson,73.5069,80.5464,-0.87,93,78,10.36,RU,1618855221
108,Jalu,29.0331,21.5482,77.22,25,74,23.73,LY,1618855594
109,Erbil,36.1926,44.0106,78.8,24,88,9.22,IQ,1618855389
110,Novonikolayevskiy,50.9738,42.3649,51.01,67,98,10.27,RU,1618855594
111,Emilio Carranza,19.9711,-96.6114,75.02,63,88,12.95,MX,1618855595
112,Alihe,50.5667,123.7167,24.78,53,0,3.83,CN,1618855595
113,Bambous Virieux,-20.3428,57.7575,79.0,89,40,9.22,MU,1618855271
114,Forécariah,9.4306,-13.0881,89.6,66,40,11.5,GN,1618855595
115,East London,-33.0153,27.9116,62.6,94,90,8.05,ZA,1618855235
116,Librazhd,41.1794,20.315,50.0,87,75,3.44,AL,1618855596
117,Sarakhs,36.5449,61.1577,77.0,25,0,5.06,IR,1618855596
118,George Town,5.4112,100.3354,81.0,89,40,5.75,MY,1618855047
119,High Level,58.5169,-117.136,37.4,60,20,9.22,CA,1618855274
120,Waldoboro,44.0954,-69.3756,63.0,44,90,13.8,US,1618855596
121,Butaritari,3.0707,172.7902,82.69,77,79,13.47,KI,1618855597
122,Salalah,17.0151,54.0924,84.2,74,0,4.61,OM,1618855313
123,Narganá,9.4428,-78.5906,82.04,77,86,4.03,PA,1618855597
124,Maningrida,-12.0667,134.2667,74.82,76,100,5.19,AU,1618855597
125,Pevek,69.7008,170.3133,3.09,91,37,7.23,RU,1618855215
126,Yantarnyy,54.8717,19.9381,53.6,50,0,8.95,RU,1618855598
127,Strezhevoy,60.7333,77.5889,10.4,72,0,6.71,RU,1618855598
128,Bathsheba,13.2167,-59.5167,86.0,51,40,25.32,BB,1618855228
129,Faanui,-16.4833,-151.75,82.26,71,11,14.2,PF,1618855286
130,Zyryanka,65.75,150.85,14.76,92,100,5.19,RU,1618855598
131,Lüderitz,-26.6481,15.1594,70.63,63,19,10.51,NA,1618855543
132,Ahipara,-35.1667,173.1667,62.2,95,100,14.36,NZ,1618855285
133,Ariquemes,-9.9133,-63.0408,80.53,90,89,3.44,BR,1618855445
134,Lundazi,-12.2929,33.1782,61.79,85,98,5.95,ZM,1618855599
135,Bulalacao,12.3254,121.3435,78.37,85,100,8.72,PH,1618855599
136,Berlevåg,70.8578,29.0864,41.0,60,0,11.5,NO,1618855600
137,Kavaratti,10.5669,72.642,84.29,70,47,7.38,IN,1618855561
138,Bantou,26.2151,117.4893,65.25,70,100,2.51,CN,1618855600
139,Dalbandin,28.8947,64.4101,76.15,24,100,4.36,PK,1618855600
140,Menongue,-14.6585,17.691,64.72,59,2,4.21,AO,1618855279
141,Plettenberg Bay,-34.0527,23.3716,61.3,85,100,15.57,ZA,1618855601
142,Chumikan,54.7183,135.315,29.77,97,100,10.25,RU,1618855576
143,Barrow,71.2906,-156.7887,24.8,80,90,17.27,US,1618855195
144,Touros,-5.1989,-35.4608,86.0,62,40,13.8,BR,1618855601
145,Syracuse,37.0881,15.2792,60.8,44,40,14.97,IT,1618855592
146,Weiden,49.6775,12.1567,52.0,76,90,1.1,DE,1618855602
147,Bereda,43.2686,-7.5406,59.0,72,96,5.99,ES,1618855572
148,Lorengau,-2.0226,147.2712,81.57,76,98,6.87,PG,1618855277
149,Gallup,35.5281,-108.7426,55.99,22,1,10.33,US,1618855316
150,Samarai,-10.6167,150.6667,81.97,79,99,10.02,PG,1618855274
151,Brae,60.3964,-1.353,46.4,81,0,13.8,GB,1618855602
152,Hong Kong,22.2855,114.1577,73.0,77,93,1.01,HK,1618855275
153,Kloulklubed,7.0419,134.2556,77.0,94,75,8.28,PW,1618855305
154,San Patricio,28.017,-97.5169,69.01,59,90,6.91,US,1618855240
155,Jacksonville,30.3322,-81.6556,78.01,43,40,10.36,US,1618855452
156,Turaif,31.6725,38.6637,86.0,20,0,9.22,SA,1618855603
157,Santa Cruz de la Sierra,-17.8,-63.1667,82.9,64,20,3.85,BO,1618855332
158,Chapada dos Guimarães,-15.4606,-55.7497,93.2,43,75,6.91,BR,1618855604
159,Kashgar,39.4547,75.9797,60.8,20,18,6.71,CN,1618855562
160,Ville-Marie,47.3335,-79.433,51.8,54,75,17.27,CA,1618855476
161,Cherskiy,68.75,161.3,12.56,90,84,8.93,RU,1618855272
162,Thompson,55.7435,-97.8558,24.8,58,75,11.5,CA,1618855202
163,Tasiilaq,65.6145,-37.6368,24.8,74,20,17.27,GL,1618855276
164,Malbork,54.0359,19.0266,55.0,64,5,5.99,PL,1618855604
165,Fukuechō,32.6881,128.8419,59.65,56,0,10.31,JP,1618855605
166,Ponta do Sol,32.6667,-17.1,69.8,60,40,11.5,PT,1618855258
167,Lusaka,-15.4067,28.2871,58.33,83,81,6.26,ZM,1618855572
168,Kruisfontein,-34.0033,24.7314,57.99,91,100,10.87,ZA,1618855229
169,Sittwe,20.15,92.9,79.97,81,0,6.02,MM,1618855605
170,Petropavlovsk-Kamchatskiy,53.0452,158.6483,37.4,93,90,22.37,RU,1618855606
171,El Alto,-4.2714,-81.2147,89.6,48,0,12.66,PE,1618855606
172,Hinche,19.15,-72.0167,93.2,40,20,17.27,HT,1618855606
173,Lavrentiya,65.5833,-171.0,21.67,86,76,6.53,RU,1618855203
174,Saint-Philippe,-21.3585,55.7679,75.2,94,90,7.85,RE,1618855232
175,Ballitoville,-29.539,31.2144,73.4,68,75,16.11,ZA,1618855607
176,Kalianget,-7.05,113.9333,80.28,72,23,6.55,ID,1618855607
177,Kununurra,-15.7667,128.7333,62.6,100,11,3.44,AU,1618855311
178,Camaçari,-12.6975,-38.3242,77.0,88,75,8.05,BR,1618855607
179,Panguna,-6.3164,155.4848,67.68,91,93,1.25,PG,1618855608
180,Kaseda-shirakame,31.4167,130.3167,55.35,65,0,8.7,JP,1618855608
181,Guerrero Negro,27.9769,-114.0611,73.72,39,0,12.19,MX,1618855608
182,Itupiranga,-5.1347,-49.3267,78.8,93,75,4.61,BR,1618855609
183,Santa Maria,-29.6842,-53.8069,78.8,50,20,14.97,BR,1618855293
184,Berëzovka,53.7214,25.4993,47.44,72,73,6.42,BY,1618855609
185,Mount Gambier,-37.8333,140.7667,53.6,94,15,10.36,AU,1618855302
186,Kiama,-34.6833,150.8667,57.0,80,12,1.01,AU,1618855226
187,Gilgit,35.9221,74.3087,50.68,48,27,3.51,PK,1618855609
188,‘Āhuimanu,21.4447,-157.8378,75.99,78,40,5.75,US,1618855610
189,Honiara,-9.4333,159.95,76.98,86,56,4.81,SB,1618855610
190,Okhotsk,59.3833,143.3,32.34,96,100,24.02,RU,1618855610
191,Gao,16.6362,1.637,98.22,8,3,7.78,ML,1618855330
192,Qaanaaq,77.484,-69.3632,8.26,73,100,7.34,GL,1618855203
193,Chernyshevskiy,63.0128,112.4714,0.93,95,11,4.94,RU,1618855611
194,Moss Vale,-34.55,150.3833,57.0,67,9,8.05,AU,1618855611
195,Kropotkin,45.4375,40.5756,55.0,95,100,2.84,RU,1618855612
196,La Santisima Trinidad,-14.8333,-64.9,86.22,63,58,4.0,BO,1618855612
197,Östersund,63.1792,14.6357,55.4,30,0,4.61,SE,1618855320
198,Mossamedes,-15.1961,12.1522,82.35,72,4,7.34,AO,1618855268
199,Antofagasta,-23.65,-70.4,72.0,60,0,11.5,CL,1618855347
200,La Baule-Escoublac,47.2922,-2.364,55.0,56,86,1.01,FR,1618855612
201,Chardara,41.2547,67.9692,70.32,30,100,5.77,KZ,1618855228
202,Charters Towers,-20.1,146.2667,70.52,84,95,11.48,AU,1618855613
203,Nha Trang,12.25,109.1833,80.6,78,20,3.67,VN,1618855613
204,Ilulissat,69.2167,-51.1,17.6,45,20,5.75,GL,1618855281
205,Tiksi,71.6872,128.8694,-7.53,100,63,4.27,RU,1618855308
206,Coro,11.4045,-69.6734,86.32,60,100,19.42,VE,1618855421
207,Pucara,-15.9803,-71.4606,68.0,32,0,11.5,PE,1618855614
208,Tadine,-21.55,167.8833,77.27,87,81,6.17,NC,1618855614
209,Chui,-33.6971,-53.4616,71.67,57,52,11.61,UY,1618855268
210,Ashtian,34.5217,50.0019,63.48,27,60,3.83,IR,1618855615
211,Alta Floresta,-9.8756,-56.0861,87.8,58,40,6.91,BR,1618855615
212,Juneau,58.3019,-134.4197,50.0,43,1,3.44,US,1618855615
213,Tocopilla,-22.092,-70.1979,71.2,64,5,5.88,CL,1618855616
214,Saldanha,-33.0117,17.9442,73.4,46,81,6.91,ZA,1618855329
215,Terney,45.0503,136.6092,46.2,61,10,15.39,RU,1618855616
216,Ludvika,60.1496,15.1878,55.99,38,7,5.75,SE,1618855616
217,Ixtapa,20.7,-105.2,78.8,65,40,8.05,MX,1618855322
218,Tuy Hoa,13.0833,109.3,75.78,87,100,3.53,VN,1618855617
219,Gijang,35.2442,129.2139,55.4,44,0,4.61,KR,1618855617
220,Burdur,37.7203,30.2908,62.6,55,75,8.05,TR,1618855320
221,Khatanga,71.9667,102.5,-15.72,99,64,2.84,RU,1618855199
222,Haines Junction,60.7522,-137.5108,35.6,55,92,1.14,CA,1618855219
223,Alofi,-19.0595,-169.9187,75.2,88,95,11.5,NU,1618855194
224,Lebu,-37.6167,-73.65,58.44,94,100,16.98,CL,1618855284
225,Port Lincoln,-34.7333,135.8667,60.51,75,15,13.58,AU,1618855247
226,São Filipe,14.8961,-24.4956,73.36,76,32,13.98,CV,1618855618
227,Leh,34.1667,77.5833,31.26,34,3,3.27,IN,1618855618
228,Chokurdakh,70.6333,147.9167,12.78,86,100,8.39,RU,1618855310
229,Wanganui,-39.9333,175.05,53.01,84,96,5.28,NZ,1618855619
230,Marquette,46.5333,-87.6335,30.99,61,95,13.0,US,1618855619
231,Vila,42.0304,-8.1588,60.01,45,89,8.99,PT,1618855619
232,Grindavik,63.8424,-22.4338,37.4,60,75,23.02,IS,1618855239
233,Birao,10.2849,22.7882,94.48,18,74,3.71,CF,1618855620
234,Nouadhibou,20.931,-17.0347,71.6,68,0,21.85,MR,1618855288
235,Saint Paul Harbor,57.79,-152.4072,42.8,87,90,12.66,US,1618855029
236,Olinda,-8.0089,-34.8553,82.4,69,40,5.75,BR,1618855620
237,Hornepayne,49.2138,-84.7705,30.36,89,100,13.8,CA,1618855620
238,Belyy Yar,53.6039,91.3903,24.8,54,0,8.95,RU,1618855621
239,Pangnirtung,66.1451,-65.7125,17.6,73,90,6.91,CA,1618855621
240,Buraidah,26.326,43.975,87.8,20,0,9.22,SA,1618855335
241,Letovice,49.5471,16.5736,48.0,80,100,3.0,CZ,1618855622
242,Vila Velha,-20.3297,-40.2925,84.0,83,40,16.11,BR,1618855315
243,Araguaçu,-12.9306,-49.8264,86.47,53,65,2.01,BR,1618855622
244,Nizhniy Kuranakh,58.8353,125.4869,1.29,99,75,3.74,RU,1618855622
245,Ft. Pierce,27.4467,-80.3256,73.4,88,75,9.22,US,1618855622
246,Mitsamiouli,-11.3847,43.2844,80.92,76,68,7.07,KM,1618855320
247,Stornoway,58.2093,-6.3865,46.99,93,90,20.71,GB,1618855623
248,Amazar,53.858,120.875,20.35,65,1,1.05,RU,1618855623
249,Hambantota,6.1241,81.1185,80.1,80,100,11.18,LK,1618855304
250,Souillac,-20.5167,57.5167,78.8,89,40,9.22,MU,1618855320
251,Arlit,18.7369,7.3853,95.54,5,3,6.17,NE,1618855624
252,Vestmannaeyjar,63.4427,-20.2734,41.0,52,40,20.71,IS,1618855288
253,San Quintín,30.4833,-115.95,73.49,32,0,6.76,MX,1618855545
254,Poronaysk,49.2167,143.1167,32.0,81,92,6.2,RU,1618855624
255,São Francisco de Paula,-29.4481,-50.5836,78.01,65,48,1.01,BR,1618855624
256,Monrovia,6.3005,-10.7969,84.2,84,75,9.66,LR,1618855518
257,Ballina,-28.8667,153.5667,55.4,94,2,5.08,AU,1618855625
258,Kalmunai,7.4167,81.8167,80.49,81,99,5.1,LK,1618855300
259,Huanuni,-18.2667,-66.85,54.07,15,0,12.03,BO,1618855625
260,Westport,41.1415,-73.3579,64.0,36,75,8.05,US,1618855626
261,Porto Belo,-27.1578,-48.5531,78.8,65,40,11.5,BR,1618855626
262,Turbat,26.0023,63.044,83.34,25,71,6.71,PK,1618855626
263,Baykit,61.67,96.37,26.55,94,100,4.65,RU,1618855626
264,Iqaluit,63.7506,-68.5145,21.2,79,90,5.75,CA,1618855232
265,Flin Flon,54.7682,-101.865,30.2,55,90,8.05,CA,1618855627
266,Deer Lake,49.1667,-57.4316,41.0,93,90,3.44,CA,1618855541
267,Oil City,41.4339,-79.7064,61.0,35,40,8.05,US,1618855627
268,Muravlenko,63.7898,74.523,8.15,90,68,11.14,RU,1618855628
269,Leningradskiy,69.3833,178.4167,10.65,83,3,7.02,RU,1618855628
270,Mehamn,71.0357,27.8492,44.6,53,0,5.75,NO,1618855285
271,Miramar,25.9873,-80.2323,91.99,46,20,20.71,US,1618855616
272,Worland,44.0169,-107.9554,28.4,86,90,23.02,US,1618855628
273,Prince Rupert,54.3161,-130.3201,55.4,38,1,3.44,CA,1618855629
274,Turan,16.0678,108.2208,78.8,89,75,3.44,VN,1618855629
275,Kargasok,59.0556,80.8572,10.99,87,94,12.73,RU,1618855630
276,Amritsar,31.6331,74.8656,69.8,40,40,2.3,IN,1618855630
277,Ulladulla,-35.35,150.4667,57.0,67,8,8.05,AU,1618855265
278,Kostomuksha,64.571,30.5767,37.54,94,11,4.25,RU,1618855630
279,Ţahţā,26.7693,31.5021,96.8,15,0,4.61,EG,1618855631
280,Hirara,24.8,125.2833,69.75,66,6,20.45,JP,1618855631
281,Mago,53.2514,140.1822,29.64,97,100,7.0,RU,1618855631
282,Orlik,52.5178,99.825,29.82,77,62,4.27,RU,1618855632
283,Mahébourg,-20.4081,57.7,78.8,89,40,9.22,MU,1618855241
284,Grand Gaube,-20.0064,57.6608,79.0,82,13,3.0,MU,1618855632
285,Pembroke,45.8168,-77.1162,62.01,44,1,6.91,CA,1618855632
286,Yulara,-25.2406,130.9889,51.8,62,0,5.75,AU,1618855255
287,Oranjemund,-28.55,16.4333,61.29,92,39,9.75,NA,1618855633
288,Reconquista,-29.15,-59.65,82.9,44,3,8.23,AR,1618855633
289,Pokhara,28.2333,83.9833,70.3,22,17,8.16,NP,1618855633
290,Athabasca,54.7169,-113.2854,44.6,45,77,11.5,CA,1618855624
291,Narsaq,60.9167,-46.05,42.8,36,75,10.36,GL,1618855233
292,Lata,40.1629,-8.3327,64.99,53,85,4.0,PT,1618855634
293,Arrondissement de Bernay,49.1667,0.6667,55.99,66,93,7.0,FR,1618855634
294,Lagoa,39.05,-27.9833,62.35,81,86,6.31,PT,1618855634
295,Havøysund,70.9963,24.6622,42.8,75,0,5.75,NO,1618855635
296,Anderson,34.5334,-82.6499,70.0,35,1,6.91,US,1618855635
297,Krasnyy Chikoy,50.3643,108.7512,39.33,57,31,4.65,RU,1618855635
298,Norman Wells,65.282,-126.8329,41.0,52,1,8.05,CA,1618855317
299,Yatou,37.15,122.3833,49.28,76,26,8.28,CN,1618855635
300,Agadez,19.75,10.25,91.94,5,2,11.23,NE,1618855636
301,Meulaboh,4.1363,96.1285,76.48,80,99,3.53,ID,1618855636
302,Kakching,24.4833,93.9833,61.07,73,0,1.3,IN,1618855637
303,Panacan,9.2463,118.4082,80.6,83,75,4.61,PH,1618855637
304,Betioky,-23.7167,44.3833,68.76,64,1,3.02,MG,1618855313
305,Cap Malheureux,-19.9842,57.6142,79.0,82,9,3.0,MU,1618855637
306,Katsuura,35.1333,140.3,55.4,58,0,6.91,JP,1618855312
307,Oslo,59.9127,10.7461,57.99,15,8,3.71,NO,1618855615
308,La Palma,33.8464,-118.0467,80.6,38,1,3.44,US,1618855381
309,Arraial do Cabo,-22.9661,-42.0278,78.8,73,40,12.66,BR,1618855207
310,Visby,57.6409,18.296,51.01,71,6,5.75,SE,1618855579
311,Rexburg,43.826,-111.7897,35.6,60,90,14.97,US,1618855638
312,Valparaíso,-33.0393,-71.6273,57.2,100,90,5.75,CL,1618855638
313,Ormara,25.2088,64.6357,83.82,56,82,6.67,PK,1618855639
314,Kavieng,-2.5744,150.7967,81.45,79,96,9.6,PG,1618855326
315,Patiya,22.2931,91.9762,75.09,90,0,4.52,BD,1618855639
316,Praia da Vitória,38.7333,-27.0667,68.0,68,40,13.15,PT,1618855640
317,Ust-Nera,64.5667,143.2,19.74,97,100,5.93,RU,1618855640
318,Köping,59.514,15.9926,53.6,40,0,5.75,SE,1618855640
319,Angoche,-16.2325,39.9086,74.8,70,16,8.93,MZ,1618855641
320,Coquimbo,-29.9533,-71.3436,59.0,77,90,6.91,CL,1618855287
321,Payson,40.0444,-111.7321,64.0,23,40,5.75,US,1618855641
322,Pisco,-13.7,-76.2167,73.4,68,0,8.05,PE,1618855273
323,Dali,25.7,100.1833,52.07,77,3,6.53,CN,1618855642
324,Tilichiki,60.4667,166.1,18.86,97,77,6.55,RU,1618855302
325,Olecko,54.0337,22.507,49.5,71,85,7.29,PL,1618855508
326,Grand-Lahou,5.1367,-5.0242,82.8,76,99,8.39,CI,1618855642
327,Upernavik,72.7868,-56.1549,11.59,72,52,6.24,GL,1618855309
328,Elizabeth City,36.2946,-76.2511,69.8,49,75,16.11,US,1618855643
329,Korla,41.7597,86.1469,63.23,38,100,7.61,CN,1618855580
330,Lhokseumawe,5.1801,97.1507,76.96,83,100,0.85,ID,1618855643
331,Mount Isa,-20.7333,139.5,71.6,35,3,5.75,AU,1618855644
332,Kuril'sk,45.2333,147.8833,36.45,95,96,12.12,RU,1618855644
333,Candelaria,13.9311,121.4233,75.43,93,100,3.65,PH,1618855644
334,Longyearbyen,78.2186,15.6401,33.8,80,90,16.11,SJ,1618855265
335,Kinsale,51.7075,-8.5306,48.0,93,90,9.22,IE,1618855622
336,Maralal,1.0968,36.698,62.38,77,95,11.61,KE,1618855645
337,Wawa,9.9022,4.4192,95.95,27,70,4.45,NG,1618855218
338,Yambio,4.5721,28.3955,75.2,69,100,0.76,SS,1618855309
339,Mut,36.6439,33.4389,76.39,29,100,7.27,TR,1618855645
340,Kharp,66.8014,65.8081,29.3,91,100,12.12,RU,1618855646
341,Sechura,-5.5569,-80.8222,81.54,58,34,10.09,PE,1618855601
342,Camacupa,-12.0167,17.4833,66.02,66,100,2.06,AO,1618855646
343,Hamilton,39.1834,-84.5333,66.99,34,75,14.97,US,1618855646
344,Skjervøy,70.0311,20.9714,50.0,50,0,4.61,NO,1618855647
345,Abapó,-18.8333,-63.4667,76.41,76,30,1.95,BO,1618855647
346,Sabzawār,36.2126,57.6819,67.89,32,49,9.78,IR,1618855647
347,Fare,-16.7,-151.0167,82.22,72,1,13.27,PF,1618855316
348,Yangi Marg`ilon,40.4272,71.7189,62.6,42,100,6.91,UZ,1618855647
349,Sistranda,63.7256,8.834,53.6,58,0,8.05,NO,1618855648
350,Santiago del Estero,-27.7951,-64.2615,89.58,37,2,12.64,AR,1618855415
351,Tuatapere,-46.1333,167.6833,51.01,81,19,7.0,NZ,1618855243
352,Adet,11.2644,37.4888,69.22,37,99,4.18,ET,1618855648
353,The Valley,18.217,-63.0578,87.8,65,20,13.8,AI,1618855214
354,Codrington,-38.2667,141.9667,55.13,80,18,14.74,AU,1618855318
355,Poum,-20.2333,164.0167,78.67,82,32,14.47,NC,1618855649
356,Dingzhou,38.5131,114.9956,60.8,72,0,2.24,CN,1618855649
357,Kozhva,65.1073,57.0459,32.92,71,98,8.97,RU,1618855649
358,Coyhaique,-45.5752,-72.0662,51.8,58,75,6.91,CL,1618855650
359,São João da Barra,-21.6403,-41.0511,82.4,61,20,4.61,BR,1618855650
360,Balkhash,46.844,74.9804,44.06,56,79,22.03,KZ,1618855650
361,Chanika,-5.4167,38.0167,67.41,87,100,2.17,TZ,1618855651
362,Tabou,4.423,-7.3528,82.51,75,99,7.16,CI,1618855213
363,Thinadhoo,0.5333,72.9333,83.3,59,30,4.32,MV,1618855651
364,Paamiut,61.994,-49.6678,32.76,86,100,15.84,GL,1618855651
365,Raudeberg,61.9875,5.1352,59.0,50,0,14.97,NO,1618855652
366,Rosamorada,22.1222,-105.2058,90.99,23,65,6.69,MX,1618855652
367,Yar-Sale,66.8333,70.8333,23.67,95,100,17.92,RU,1618855242
368,Taywarah,33.35,64.4167,46.51,26,84,5.28,AF,1618855652
369,Casma,-41.0082,-73.1244,57.2,97,90,5.75,CL,1618855653
370,San Cristobal,7.7669,-72.225,96.8,30,40,19.57,VE,1618855311
371,Wanaka,-44.7,169.15,48.0,87,1,3.94,NZ,1618855653
372,Bitkine,11.9801,18.2138,95.67,14,44,1.63,TD,1618855653
373,Sola,-13.8833,167.55,82.22,78,76,11.14,VU,1618855290
374,Orsk,51.2049,58.5668,33.8,60,0,13.42,RU,1618855654
375,Negombo,7.2083,79.8358,84.2,74,20,8.05,LK,1618855369
376,Petrolina,-9.3986,-40.5008,82.4,61,75,5.75,BR,1618855654
377,Geraldton,-28.7667,114.6,57.2,88,0,8.05,AU,1618855217
378,Karlskrona,56.1616,15.5866,55.4,38,0,11.5,SE,1618855655
379,Ostrovnoy,68.0531,39.5131,38.25,92,78,17.78,RU,1618855304
380,Great Bend,38.3645,-98.7648,45.0,65,90,17.27,US,1618855655
381,Inhambane,-23.865,35.3833,73.4,68,0,8.25,MZ,1618855655
382,Belaya Gora,68.5333,146.4167,16.48,90,99,11.7,RU,1618855295
383,Chifeng,42.2683,118.9636,51.26,21,51,6.46,CN,1618855656
384,Arman',59.7,150.1667,34.61,83,100,28.41,RU,1618855656
385,Fairbanks,64.8378,-147.7164,42.8,56,1,0.36,US,1618855656
386,Kontagora,10.3999,5.4695,95.09,24,55,8.05,NG,1618855657
387,Hingoli,19.7167,77.15,94.48,17,99,9.13,IN,1618855657
388,Keti Bandar,24.1447,67.4497,81.73,70,99,15.79,PK,1618855657
389,North Bend,43.4065,-124.2243,52.0,70,100,1.01,US,1618855658
390,Tanout,14.9709,8.8879,92.05,6,18,3.4,NE,1618855658
391,Nyurba,63.2842,118.3319,-5.15,100,60,2.89,RU,1618855659
392,Stromness,58.965,-3.296,50.0,76,0,10.36,GB,1618855659
393,Avera,33.194,-82.5271,73.4,28,1,6.91,US,1618855659
394,Hassan,13.0006,76.0994,71.85,85,81,10.33,IN,1618855660
395,Bethel,41.3712,-73.414,64.4,34,75,8.05,US,1618855234
396,São Lourenço do Oeste,-26.3592,-52.8511,80.01,48,0,2.13,BR,1618855660
397,Yichang,30.7144,111.2847,62.19,91,100,2.73,CN,1618855660
398,Torres,-29.3353,-49.7269,73.42,59,54,6.96,BR,1618855479
399,Krasnosel'kup,65.7,82.4667,-5.03,99,33,8.43,RU,1618855661
400,Bela,25.9333,81.9833,86.65,13,0,5.59,IN,1618855661
401,Whitehorse,60.7161,-135.0538,39.2,56,1,13.8,CA,1618855015
402,Sabinas,27.85,-101.1167,67.46,34,79,12.41,MX,1618855662
403,Linjiang,41.8069,126.9078,44.44,48,32,1.97,CN,1618855662
404,Clyde River,70.4692,-68.5914,6.8,85,75,21.85,CA,1618855290
405,Labuhan,-6.8844,112.2051,76.6,82,87,6.42,ID,1618855314
406,Noshiro,40.2039,140.0242,50.81,88,35,11.07,JP,1618855663
407,Umeå,63.8284,20.2597,46.4,49,0,3.44,SE,1618855663
408,Fasa,28.9383,53.6482,71.6,26,0,4.45,IR,1618855511
409,Kathmandu,27.7167,85.3167,60.8,72,20,4.61,NP,1618855540
410,Mishan,45.55,131.8833,39.58,32,15,19.33,CN,1618855664
411,Bossangoa,6.4926,17.4552,81.25,51,98,6.44,CF,1618855664
412,Savinskiy,62.9342,40.1361,34.57,68,39,3.18,RU,1618855664
413,Simao,22.7886,100.9748,62.71,60,9,1.79,CN,1618855665
414,Richards Bay,-28.783,32.0377,74.16,79,30,18.39,ZA,1618854980
415,Yarim,14.298,44.3779,60.26,37,100,6.2,YE,1618855665
416,Bakchar,57.0186,82.0711,9.52,96,93,5.17,RU,1618855665
417,Erzin,36.9559,36.2,73.4,64,75,3.44,TR,1618855666
418,Lumeje,-11.55,20.7833,72.81,59,99,5.12,AO,1618855666
419,Thessalon,46.2501,-83.5666,41.0,87,90,11.5,CA,1618855666
420,Myitkyina,25.3833,97.4,67.8,83,2,3.09,MM,1618855667
421,Srednebelaya,50.6594,128.0106,32.0,32,0,8.95,RU,1618855667
422,Katangli,51.7102,143.2326,29.28,96,100,13.67,RU,1618855667
423,Tyup,42.7276,78.3648,42.57,65,100,5.19,KG,1618855668
424,Alto Araguaia,-17.3147,-53.2153,84.11,44,36,2.91,BR,1618855668
425,Los Llanos de Aridane,28.6585,-17.9182,71.6,64,20,14.97,ES,1618855235
426,Letterkenny,54.95,-7.7333,48.2,87,20,12.66,IE,1618855668
427,Wuchang,44.9143,127.15,40.69,38,0,6.87,CN,1618855669
428,Bonavista,48.6499,-53.1147,44.6,93,100,2.3,CA,1618855669
429,Pemangkat,1.1667,108.9667,79.03,78,91,3.04,ID,1618855670
430,Boddam,57.4667,-1.7833,50.0,66,65,13.8,GB,1618855670
431,Wanning,18.8003,110.3967,77.22,88,82,9.95,CN,1618855670
432,Livingstonia,-10.606,34.1063,60.51,85,91,5.44,MW,1618855671
433,Big Bend,-26.8167,31.9333,68.67,66,0,7.2,SZ,1618855671
434,Cockburn Town,21.4612,-71.1419,84.2,65,20,16.11,TC,1618855501
435,Ubari,26.5921,12.7805,77.41,25,0,9.33,LY,1618855672
436,Tashla,51.7716,52.7427,40.59,64,100,15.19,RU,1618855672
437,Cayenne,4.9333,-52.3333,81.0,94,75,2.3,GF,1618855278
438,Talnakh,69.4865,88.3972,-13.16,96,58,0.94,RU,1618855268
439,La Trinité,14.7376,-60.9629,87.8,51,20,17.27,MQ,1618855673
440,Imbituba,-28.24,-48.6703,75.2,73,40,10.36,BR,1618855673
441,Carndonagh,55.25,-7.2667,45.16,93,100,8.32,IE,1618855673
442,Svetlaya,46.5389,138.3297,42.39,69,4,10.74,RU,1618855673
443,Golden,39.7555,-105.2211,35.01,100,90,8.05,US,1618855674
444,Asău,46.4333,26.4,46.0,57,100,2.1,RO,1618855674
445,Chicama,-7.8447,-79.1469,68.0,83,94,11.5,PE,1618855674
446,Berbera,10.4396,45.0143,82.89,74,100,1.3,SO,1618855675
447,Huancavelica,-12.7667,-74.9833,51.28,50,32,8.28,PE,1618855675
448,College,64.8569,-147.8028,42.8,52,1,0.38,US,1618855675
449,Hualmay,-11.0964,-77.6139,73.83,70,92,11.07,PE,1618855246
450,Nalgonda,17.05,79.2667,87.67,52,63,9.08,IN,1618855676
451,Karratha,-20.7377,116.8463,79.36,53,0,9.55,AU,1618855676
452,Inongo,-1.95,18.2667,74.05,89,99,3.04,CD,1618855676
453,La Reforma,25.0833,-108.05,86.0,35,25,3.0,MX,1618855677
454,Jinchang,38.4953,102.1739,50.83,32,93,5.77,CN,1618855677
455,Bariloche,-41.1456,-71.3082,57.2,88,75,10.36,AR,1618855678
456,Sitka,57.0531,-135.33,50.0,66,1,4.61,US,1618855212
457,Awjilah,29.1081,21.2869,75.81,26,71,23.53,LY,1618855678
458,Malé,4.1748,73.5089,84.2,74,20,6.91,MV,1618855679
459,Fatehpur Sikri,27.1,77.6667,85.96,13,44,6.04,IN,1618855679
460,Yorkton,51.2167,-102.4677,33.8,40,75,9.22,CA,1618855611
461,Burnie,-41.0667,145.9167,57.0,93,79,15.99,AU,1618855278
462,Santa Cruz,30.4202,-9.5982,71.6,56,0,13.8,MA,1618855588
463,Sorong,-0.8833,131.25,79.32,80,100,3.18,ID,1618855681
464,Nkpor,6.1516,6.8446,83.95,64,91,5.37,NG,1618855681
465,Saint Anthony,45.0205,-93.218,37.99,48,90,14.97,US,1618855321
466,Dunedin,-45.8742,170.5036,53.01,81,1,1.99,NZ,1618855252
467,Green River,41.5286,-109.4662,35.6,51,90,21.85,US,1618855575
468,Sept-Îles,50.2001,-66.3821,51.01,40,75,10.36,CA,1618855429
469,Manokwari,-0.8667,134.0833,77.9,78,100,2.53,ID,1618855682
470,Agüimes,27.9054,-15.4461,71.6,60,20,28.77,ES,1618855682
471,Coolum Beach,-26.5333,153.1,62.01,85,3,4.12,AU,1618855683
472,Manyana,-23.4,21.7167,66.36,30,1,6.51,BW,1618855683
473,Lucapa,-8.4192,20.7447,68.29,91,98,3.33,AO,1618855683
474,Río Gallegos,-51.6226,-69.2181,51.8,66,40,8.05,AR,1618855683
475,Klaksvík,62.2266,-6.589,39.2,93,75,11.5,FO,1618855684
476,Port Macquarie,-31.4333,152.9167,53.01,98,7,1.01,AU,1618855297
477,Bilibino,68.0546,166.4372,3.52,98,69,5.35,RU,1618855322
478,Jaora,23.6333,75.1333,88.56,17,40,12.39,IN,1618855684
479,Warrnambool,-38.3833,142.4833,57.0,84,17,5.99,AU,1618855251
480,Antalaha,-14.9003,50.2788,74.77,85,47,8.32,MG,1618855685
481,Ancud,-41.8697,-73.8203,55.4,76,75,6.06,CL,1618855685
482,Weligama,5.9667,80.4167,79.63,82,88,6.82,LK,1618855685
483,North Platte,41.1239,-100.7654,30.2,74,90,10.36,US,1618855553
484,Alamosa,37.4695,-105.87,51.8,24,1,8.05,US,1618855636
485,Bindura,-17.3019,31.3306,62.01,73,70,1.01,ZW,1618855686
486,Vágur,61.4732,-6.8119,40.06,93,100,18.7,FO,1618855572
487,Repalle,16.0167,80.85,83.7,78,7,9.69,IN,1618855686
488,Hobyo,5.3505,48.5268,84.06,72,12,12.24,SO,1618855303
489,La Ronge,55.1001,-105.2842,30.2,59,100,9.22,CA,1618855197
490,Rawson,-43.3002,-65.1023,82.49,40,50,26.15,AR,1618854906
491,Ajdabiya,30.7554,20.2263,64.53,48,49,20.85,LY,1618855687
492,Udupi,13.35,74.75,82.4,78,20,3.42,IN,1618855687
493,Saint-Honoré,48.5334,-71.0824,62.01,44,86,6.91,CA,1618855687
494,Arras,50.293,2.7819,57.0,58,0,5.75,FR,1618855566
495,Qaqortoq,60.7167,-46.0333,42.8,36,75,10.36,GL,1618855688
496,Ust'-Kut,56.7938,105.7672,25.39,77,88,16.08,RU,1618855688
497,Thibodaux,29.7958,-90.8229,70.0,42,34,4.0,US,1618855667
498,Half Moon Bay,37.4636,-122.4286,64.0,67,20,12.66,US,1618855282
499,Örnsköldsvik,63.2909,18.7153,44.6,45,0,4.61,SE,1618855689
500,Miles City,46.4083,-105.8406,37.4,41,75,9.22,US,1618855689
501,Chudovo,59.1167,31.6833,43.7,58,3,6.08,RU,1618855689
502,Vizinga,61.0749,50.1031,28.87,73,0,1.83,RU,1618855690
503,Kalmar,56.6616,16.3616,46.4,71,0,5.75,SE,1618855690
504,Cam Ranh,11.9214,109.1591,80.6,78,20,2.93,VN,1618855690
505,Chāndpur,29.15,78.2667,79.9,14,16,7.81,IN,1618855691
506,Lázaro Cárdenas,17.9583,-102.2,82.22,44,26,8.95,MX,1618855645
507,Huarmey,-10.0681,-78.1522,74.39,72,100,11.39,PE,1618855691
508,Caravelas,-17.7125,-39.2481,84.02,65,51,10.47,BR,1618855691
509,Felipe Carrillo Puerto,19.5833,-88.05,91.17,56,44,1.16,MX,1618855692
510,Kiryat Gat,31.61,34.7642,80.01,35,100,3.0,IL,1618855692
511,Russell,32.3502,-85.1999,70.0,37,1,10.36,US,1618855248
512,Danshui,22.7984,114.4672,72.0,99,83,25.99,CN,1618855692
513,Rantepao,-2.9701,119.8978,65.75,97,100,2.28,ID,1618855693
514,Mabaruma,8.2,-59.7833,86.47,48,99,8.68,GY,1618855693
515,Am Timan,11.0297,20.2827,95.74,15,42,2.37,TD,1618855693
516,Auki,-8.7676,160.7034,77.72,88,46,4.16,SB,1618855694
517,Batagay,67.6333,134.6333,8.65,97,100,2.93,RU,1618855694
518,Ibirubá,-28.6275,-53.0897,79.38,39,0,7.4,BR,1618855694
519,Celestún,20.8667,-90.4,84.38,69,9,11.99,MX,1618855694
520,Joniškėlis,56.0253,24.1689,55.4,35,0,5.75,LT,1618855695
521,Calvinia,-31.4707,19.776,69.64,48,68,6.17,ZA,1618855695
522,Cotonou,6.3654,2.4183,86.0,70,40,12.66,BJ,1618855629
523,Andra,62.5147,65.8878,22.01,81,94,8.28,RU,1618855695
524,Simpang Empat,4.95,100.6333,80.6,83,20,2.3,MY,1618855696
525,Zhuhai,22.2769,113.5678,73.4,78,40,18.41,CN,1618855696
526,Fortuna,40.5982,-124.1573,48.2,93,75,11.5,US,1618855252
527,Kokkola,63.8385,23.1307,50.0,43,0,2.3,FI,1618855696
528,Arrondissement de Saint-Denis,48.9167,2.3333,62.01,41,0,3.44,FR,1618855697
529,Luocheng,29.3848,104.0286,56.97,97,100,3.38,CN,1618855697
530,Ambon City,-3.6954,128.1814,77.0,94,40,5.75,ID,1618855334
531,Byron Bay,-28.65,153.6167,55.4,94,2,4.63,AU,1618855464
532,Rincon,32.296,-81.2354,77.0,25,20,12.66,US,1618855511
533,Hammerfest,70.6634,23.6821,41.0,81,0,2.3,NO,1618855529
534,Natal,-5.795,-35.2094,86.0,66,40,11.5,BR,1618855244
535,Akhmīm,26.5622,31.745,96.8,15,0,4.61,EG,1618855698
536,Batagay-Alyta,67.8006,130.4114,-4.27,93,100,6.85,RU,1618855698
537,Slavuta,50.3016,26.8651,46.72,76,100,7.67,UA,1618855454
538,Gander,48.9682,-54.5906,41.0,100,90,5.75,CA,1618855698
539,Sivas Province,39.7916,37.0019,55.4,54,75,4.61,TR,1618855498
540,Puri,19.8,85.85,84.2,84,40,11.5,IN,1618855699
541,Riberalta,-10.9833,-66.1,83.21,81,80,3.51,BO,1618855699
542,Cardoso,-20.0819,-49.9142,86.4,31,13,8.25,BR,1618855700
543,Micoud,13.8167,-60.9,86.0,62,40,18.41,LC,1618855700
544,Tual,-5.6667,132.75,81.05,77,99,2.01,ID,1618855700
545,Asekeyevo,53.5742,52.7972,39.78,56,94,10.42,RU,1618855701
546,Ayotzintepec,17.6667,-96.1333,85.87,53,93,4.03,MX,1618855701
547,Hanyang,32.1371,105.5126,54.63,93,100,2.08,CN,1618855701
548,Puerto Ayacucho,5.6639,-67.6236,92.44,41,98,3.18,VE,1618855701
549,Vanimo,-2.6741,141.3028,75.38,84,100,4.63,PG,1618855702
550,Marabu,4.4148,114.0089,75.2,94,40,3.44,MY,1618855702
551,Tsogni,-2.7942,10.0988,77.58,88,96,4.41,GA,1618855702
552,Marawi,7.9986,124.2928,75.0,84,100,7.0,PH,1618855253
553,Alice Springs,-23.7,133.8833,46.4,53,0,5.75,AU,1618855309
554,Suez,29.9737,32.5263,84.96,29,100,9.48,EG,1618855703
555,Muli,2.9167,73.5667,82.94,65,7,4.94,MV,1618855704
556,Coari,-4.085,-63.1414,72.75,99,100,2.93,BR,1618855289
557,Lichinga,-13.3128,35.2406,60.8,88,75,6.91,MZ,1618855704
