,City,Latitude,Longitude,Maximum Temperature,Humidity,Cloudiness,Wind Speed,Country,Date
0,Asău,46.4333,26.4,52.0,66,90,2.3,RO,1618846284
1,Cape Town,-33.9258,18.4232,71.6,49,20,11.5,ZA,1618846119
2,Yangi Marg`ilon,40.4272,71.7189,69.8,28,100,2.3,UZ,1618846284
3,Plover,44.4564,-89.544,39.0,60,90,14.97,US,1618846285
4,Aswān,24.0934,32.907,99.14,15,96,12.57,EG,1618846285
5,Busselton,-33.65,115.3333,57.0,97,98,9.46,AU,1618846285
6,Port Alfred,-33.5906,26.891,62.71,83,100,14.03,ZA,1618846285
7,Biak,-0.9131,122.8766,76.86,75,100,1.95,ID,1618846286
8,Mahébourg,-20.4081,57.7,80.6,83,75,8.05,MU,1618846286
9,Bodaybo,57.8506,114.1933,20.19,83,100,6.02,RU,1618846286
10,Bambous Virieux,-20.3428,57.7575,80.6,83,75,8.05,MU,1618846287
11,Pedasí,7.5333,-80.0333,81.59,74,99,3.04,PA,1618846287
12,Sakété,6.7362,2.6587,87.8,70,40,10.36,BJ,1618846287
13,General Roca,-39.0333,-67.5833,73.4,68,0,2.3,AR,1618846287
14,Rikitea,-23.1203,-134.9692,77.41,74,0,8.1,PF,1618846288
15,Mahanoro,-19.9,48.8,72.72,78,87,6.87,MG,1618846288
16,Mataura,-46.1927,168.8643,48.0,84,32,3.8,NZ,1618846288
17,Ushuaia,-54.8,-68.3,46.4,76,90,13.8,AR,1618846289
18,Adelaide,-34.9333,138.6,57.0,82,0,5.75,AU,1618846289
19,Karaton,-6.3424,106.1045,82.0,94,40,11.5,ID,1618846289
20,Río Gallegos,-51.6226,-69.2181,46.4,76,75,16.11,AR,1618846239
21,San Patricio,28.017,-97.5169,66.2,52,90,5.75,US,1618846290
22,Hong Kong,22.2855,114.1577,73.0,76,86,1.01,HK,1618846012
23,Kapaa,22.0752,-159.319,69.8,88,75,4.61,US,1618846291
24,Lebu,-37.6167,-73.65,59.79,86,100,17.4,CL,1618846291
25,Kosice,48.6667,21.3333,53.6,58,40,9.22,SK,1618846292
26,Calabozo,8.9242,-67.4293,88.18,40,100,11.72,VE,1618846024
27,Albany,42.6001,-73.9662,61.0,43,63,3.18,US,1618846292
28,Soyo,-6.1349,12.3689,73.4,94,75,6.91,AO,1618846293
29,Port Elizabeth,-33.918,25.5701,59.0,88,90,3.44,ZA,1618846293
30,Conselheiro Pena,-19.1722,-41.4722,87.78,52,87,4.0,BR,1618846294
31,Riyadh,24.6877,46.7219,93.2,8,0,14.97,SA,1618846054
32,Arraial do Cabo,-22.9661,-42.0278,80.6,73,40,18.41,BR,1618846294
33,Matara,5.9485,80.5353,78.94,85,93,8.12,LK,1618846294
34,Avarua,-21.2078,-159.775,78.8,73,75,5.75,CK,1618846295
35,Vao,-22.6667,167.4833,77.18,82,96,6.64,NC,1618846295
36,Bluff,-46.6,168.3333,48.0,84,43,13.87,NZ,1618846295
37,Aksha,50.2814,113.2867,39.9,35,11,4.79,RU,1618846296
38,Nador,35.174,-2.9287,69.8,64,0,6.91,MA,1618846296
39,Geraldton,-28.7667,114.6,62.6,72,0,13.8,AU,1618846296
40,Twentynine Palms,34.1356,-116.0542,69.01,13,1,4.61,US,1618846297
41,Syracuse,37.0881,15.2792,64.4,39,40,20.71,IT,1618846297
42,Bengkulu,-3.8004,102.2655,76.95,85,100,4.07,ID,1618846298
43,Iqaluit,63.7506,-68.5145,19.4,73,75,6.91,CA,1618846188
44,Butaritari,3.0707,172.7902,82.85,76,57,13.56,KI,1618846298
45,Deputatsky,69.3,139.9,4.24,98,100,1.57,RU,1618846299
46,Saint-Augustin,51.226,-58.6502,41.02,87,100,18.79,CA,1618846070
47,Hermanus,-34.4187,19.2345,64.99,68,100,8.01,ZA,1618846300
48,Mar del Plata,-38.0023,-57.5575,73.4,68,20,14.97,AR,1618846220
49,Wajir,1.7471,40.0573,91.4,52,40,1.14,KE,1618846300
50,Punta Arenas,-53.15,-70.9167,46.4,87,0,3.44,CL,1618846300
51,Atuona,-9.8,-139.0333,79.38,80,31,18.43,PF,1618846301
52,Kwinana,-32.25,115.7667,62.01,100,42,6.96,AU,1618846301
53,Namatanai,-3.6667,152.4333,80.17,80,95,5.73,PG,1618846301
54,Tessalit,20.1986,1.0114,98.33,6,49,9.57,ML,1618846302
55,Grafton,42.207,-71.6856,64.99,41,20,12.66,US,1618846302
56,Damara,4.9608,18.7035,96.8,46,40,4.61,CF,1618846303
57,Ixtapa,20.7,-105.2,84.54,30,35,3.74,MX,1618846303
58,Labuhan,-6.8844,112.2051,78.21,81,93,6.04,ID,1618846304
59,Ancud,-41.8697,-73.8203,54.0,100,75,7.7,CL,1618846304
60,Castro,-24.7911,-50.0119,65.86,68,97,5.55,BR,1618846304
61,Izmaylovo,53.7211,47.2458,43.79,60,100,16.06,RU,1618846305
62,Jamestown,42.097,-79.2353,57.99,47,1,8.46,US,1618846305
63,Tuktoyaktuk,69.4541,-133.0374,15.8,86,20,6.91,CA,1618846305
64,Podil’s’k,47.7531,29.532,51.42,68,100,5.7,UA,1618846306
65,Tilichiki,60.4667,166.1,22.51,97,88,7.23,RU,1618846306
66,Sisimiut,66.9395,-53.6735,25.95,54,90,8.5,GL,1618846306
67,Vaini,-21.2,-175.2,75.2,94,20,3.44,TO,1618846307
68,Hithadhoo,-0.6,73.0833,83.66,65,16,4.97,MV,1618846307
69,Dikson,73.5069,80.5464,6.03,87,100,14.45,RU,1618846307
70,Thompson,55.7435,-97.8558,21.2,63,75,12.66,CA,1618846307
71,Ponta Delgada,37.7333,-25.6667,64.4,82,20,10.36,PT,1618846308
72,Comodoro Rivadavia,-45.8667,-67.5,75.2,38,0,14.97,AR,1618846198
73,Chokurdakh,70.6333,147.9167,10.36,85,98,6.91,RU,1618846308
74,Qaanaaq,77.484,-69.3632,7.38,74,100,6.55,GL,1618846308
75,Torbay,47.6666,-52.7314,48.2,66,75,13.8,CA,1618846309
76,Doka,13.5167,35.7667,94.71,19,47,10.16,SD,1618846309
77,Codrington,-38.2667,141.9667,55.58,82,44,13.89,AU,1618846310
78,Hobart,-42.8794,147.3294,60.01,58,90,4.61,AU,1618846066
79,Saint-Philippe,-21.3585,55.7679,77.0,88,75,13.8,RE,1618846310
80,Thinadhoo,0.5333,72.9333,83.66,59,10,4.68,MV,1618846310
81,Hilo,19.7297,-155.09,71.6,73,40,5.75,US,1618846303
82,Madimba,-10.4,40.3333,78.8,78,40,19.57,TZ,1618846311
83,Bealanana,-14.55,48.7333,62.92,97,41,4.63,MG,1618846311
84,Kumul,42.8,93.45,67.21,15,94,6.96,CN,1618846311
85,Tateyama,34.9833,139.8667,59.0,63,20,3.44,JP,1618846312
86,Pagudpud,18.5616,120.7868,78.8,69,20,13.8,PH,1618846312
87,Valdivia,-39.8142,-73.2459,59.0,100,90,10.36,CL,1618846312
88,Ambilobe,-13.2,49.05,76.23,76,20,5.14,MG,1618846313
89,Khani,41.9563,42.9566,73.4,56,75,3.44,GE,1618846313
90,East London,-33.0153,27.9116,62.6,100,90,10.36,ZA,1618846313
91,Fairbanks,64.8378,-147.7164,30.2,80,1,4.61,US,1618846203
92,Sandūr,15.1,76.55,85.5,51,91,15.7,IN,1618846314
93,Te Anau,-45.4167,167.7167,47.95,91,35,3.36,NZ,1618846314
94,Bloomington,44.8408,-93.2983,35.01,60,90,20.71,US,1618846212
95,Airai,-8.9266,125.4092,57.54,89,81,1.9,TL,1618846315
96,Ubinskoye,55.3068,79.6802,19.53,57,100,11.83,RU,1618846315
97,Telimele,10.9167,-13.3333,97.68,29,98,2.37,GN,1618846104
98,Yellowknife,62.456,-114.3525,24.8,80,20,8.05,CA,1618846070
99,Guerrero Negro,27.9769,-114.0611,67.59,56,0,9.6,MX,1618846215
100,Fare,-16.7,-151.0167,81.86,71,1,12.48,PF,1618846315
101,Broome,42.2506,-75.833,55.99,58,90,4.61,US,1618846316
102,Lagoa,39.05,-27.9833,62.15,81,99,7.38,PT,1618846316
103,Alofi,-19.0595,-169.9187,77.0,83,95,11.5,NU,1618846317
104,Kiryat Gat,31.61,34.7642,93.99,21,100,1.99,IL,1618846204
105,Salalah,17.0151,54.0924,84.2,74,40,6.91,OM,1618846317
106,Peleduy,59.6289,112.7406,19.83,82,100,7.94,RU,1618846318
107,Makkah al Mukarramah,21.4267,39.8261,91.47,30,31,12.41,SA,1618846318
108,Chapais,49.7834,-74.8492,48.2,34,1,4.61,CA,1618846318
109,Okha,53.5739,142.9478,30.96,99,100,2.37,RU,1618846319
110,Cortes,41.9395,-1.4396,69.8,19,100,12.66,ES,1618846319
111,Taltal,-25.4,-70.4833,67.1,70,1,5.35,CL,1618846319
112,Bonavista,48.6499,-53.1147,42.8,100,100,3.44,CA,1618846320
113,Port Blair,11.6667,92.75,81.99,73,63,4.99,IN,1618846320
114,Gweta,-20.1833,25.2333,74.19,18,0,4.63,BW,1618846320
115,Egvekinot,66.3167,-179.1667,10.42,78,2,7.23,RU,1618846321
116,Māndal,25.45,74.5667,88.54,15,83,7.43,IN,1618846322
117,Adrar,20.5022,-10.0711,98.1,4,0,4.72,MR,1618846322
118,Paita,-5.0892,-81.1144,84.2,54,0,12.66,PE,1618846266
119,Saint Paul Harbor,57.79,-152.4072,44.6,76,90,13.8,US,1618846323
120,Kutum,14.2,24.6667,91.47,6,3,7.65,SD,1618846323
121,Bosaso,11.2842,49.1816,82.4,89,40,9.22,SO,1618846324
122,Mount Isa,-20.7333,139.5,73.4,40,3,5.75,AU,1618846324
123,Hīt,33.6416,42.8251,91.51,13,100,7.4,IQ,1618846324
124,Santa Cruz de la Sierra,-17.8,-63.1667,84.63,55,11,3.06,BO,1618846154
125,Noumea,-22.2763,166.4572,79.0,94,90,5.21,NC,1618846208
126,Upernavik,72.7868,-56.1549,11.35,67,78,5.64,GL,1618846325
127,Longyearbyen,78.2186,15.6401,35.6,64,75,13.8,SJ,1618846325
128,Pevek,69.7008,170.3133,1.65,94,28,6.11,RU,1618846304
129,Coyhaique,-45.5752,-72.0662,46.4,87,90,5.75,CL,1618846326
130,Tasiilaq,65.6145,-37.6368,26.6,50,20,5.75,GL,1618846326
131,Sabang,5.8933,95.3214,81.12,75,95,12.08,ID,1618846326
132,La Bañeza,42.3003,-5.8977,62.01,44,40,11.5,ES,1618846327
133,Lubumbashi,-11.6609,27.4794,75.2,57,40,11.5,CD,1618846327
134,Xingcheng,40.6167,120.7167,56.34,53,26,13.76,CN,1618846328
135,Ballina,-28.8667,153.5667,57.99,94,1,5.64,AU,1618846328
136,Bubaque,11.2833,-15.8333,78.33,68,100,8.12,GW,1618846328
137,Tiznit Province,29.5833,-9.5,76.21,37,14,10.71,MA,1618846329
138,Norman Wells,65.282,-126.8329,33.8,69,1,7.25,CA,1618846329
139,Paphos,34.7667,32.4167,86.0,68,0,8.05,CY,1618846165
140,Mount Gambier,-37.8333,140.7667,55.4,94,40,11.5,AU,1618846303
141,Moussoro,13.6408,16.4901,106.09,4,50,2.08,TD,1618846330
142,Nanortalik,60.1432,-45.2371,34.0,63,95,10.25,GL,1618846330
143,Tiksi,71.6872,128.8694,-6.7,100,49,4.34,RU,1618846330
144,Dzhebariki-Khaya,62.2167,135.8,24.62,98,100,3.24,RU,1618846331
145,Flinders,-34.5833,150.8552,53.01,79,10,1.01,AU,1618846310
146,Parabel',58.6978,81.4825,13.05,83,100,14.05,RU,1618846331
147,Chengde,40.9725,117.9361,59.85,23,44,4.52,CN,1618846332
148,Grindavik,63.8424,-22.4338,37.4,70,75,18.41,IS,1618846332
149,New Norfolk,-42.7826,147.0587,60.01,70,100,3.0,AU,1618846333
150,Hamilton,39.1834,-84.5333,62.01,51,1,5.75,US,1618846181
151,Bredasdorp,-34.5322,20.0403,62.6,67,100,16.11,ZA,1618846333
152,Umm Hājar,13.2954,19.6966,104.9,6,52,1.86,TD,1618846333
153,São João da Barra,-21.6403,-41.0511,82.4,61,75,5.75,BR,1618846334
154,Songea,-10.6833,35.65,69.8,88,40,9.22,TZ,1618846334
155,Vestmannaeyjar,63.4427,-20.2734,37.4,81,40,14.97,IS,1618846335
156,Japura,-0.3167,102.35,74.61,96,37,2.33,ID,1618846335
157,College,64.8569,-147.8028,30.2,80,20,3.44,US,1618846336
158,Alice Springs,-23.7,133.8833,48.2,53,0,4.61,AU,1618846336
159,Megion,61.0296,76.1136,12.2,62,0,8.95,RU,1618846336
160,Manokwari,-0.8667,134.0833,77.68,80,100,4.16,ID,1618846300
161,Barrow,71.2906,-156.7887,21.2,86,1,9.22,US,1618846337
162,Anloga,5.7947,0.8973,87.8,70,20,10.36,GH,1618846337
163,Cayenne,4.9333,-52.3333,82.0,94,90,1.14,GF,1618846337
164,Severo-Kuril'sk,50.6789,156.125,38.1,96,100,25.37,RU,1618846338
165,Padang,-0.9492,100.3543,78.8,89,40,2.3,ID,1618846338
166,Moosomin,50.1333,-101.6677,30.56,44,67,12.08,CA,1618846339
167,Methóni,36.8197,21.7049,64.4,39,40,6.91,GR,1618846339
168,Faanui,-16.4833,-151.75,82.09,71,10,13.04,PF,1618846339
169,Chilmāri,25.5559,89.6715,82.31,33,0,10.2,BD,1618846339
170,Manacapuru,-3.2997,-60.6206,80.6,83,75,4.61,BR,1618846340
171,Puerto Ayora,-0.7393,-90.3518,80.6,78,40,11.5,EC,1618846340
172,Sioux Lookout,50.1001,-91.917,23.0,54,20,9.22,CA,1618846340
173,Provideniya,64.3833,-173.3,20.82,84,71,6.76,RU,1618846341
174,Conway,35.0887,-92.4421,62.01,62,1,5.88,US,1618846341
175,Lárdos,36.0942,28.0157,68.0,77,20,12.66,GR,1618846341
176,Cervo,43.6702,-7.4101,57.99,78,58,8.01,ES,1618846342
177,São Filipe,14.8961,-24.4956,75.31,70,27,14.23,CV,1618846342
178,Carnarvon,-24.8667,113.6333,74.66,61,0,25.59,AU,1618846342
179,Yulara,-25.2406,130.9889,51.8,54,0,4.61,AU,1618846342
180,Fortuna,40.5982,-124.1573,44.6,100,90,6.91,US,1618846343
181,Port-Gentil,-0.7193,8.7815,78.8,83,20,2.44,GA,1618846342
182,Botwood,49.1499,-55.3482,41.0,91,100,5.46,CA,1618846343
183,Constitución,-35.3333,-72.4167,62.76,69,30,7.56,CL,1618846158
184,Hobyo,5.3505,48.5268,84.24,71,29,11.74,SO,1618846343
185,Kwang Binh,17.4833,106.6,76.6,91,38,9.13,VN,1618846344
186,Lüderitz,-26.6481,15.1594,76.08,52,24,17.52,NA,1618846344
187,Cherskiy,68.75,161.3,11.3,88,85,9.33,RU,1618846345
188,Bilma,18.6853,12.9164,104.67,4,2,7.27,NE,1618846345
189,Phuket,8.0,98.25,84.99,78,40,11.5,TH,1618846210
190,Huangyan,28.6478,121.2594,53.01,86,43,5.01,CN,1618846346
191,Fort Nelson,58.8053,-122.7002,32.0,69,1,3.44,CA,1618846202
192,Blyth,55.1271,-1.5086,57.2,47,0,11.5,GB,1618846346
193,Kāzerūn,29.6195,51.6541,75.63,26,1,4.9,IR,1618846346
194,Takaka,-40.85,172.8,53.01,85,90,4.09,NZ,1618846347
195,Esperance,-33.8667,121.9,57.2,94,75,5.75,AU,1618846347
196,Kouango,4.9934,19.9619,92.52,41,89,3.44,CF,1618846347
197,Lieksa,63.3167,30.0167,42.01,79,5,1.54,FI,1618846348
198,Lemgo,52.0333,8.9,57.0,67,20,11.5,DE,1618846348
199,Pachmarhi,22.4667,78.4333,79.93,16,25,1.52,IN,1618846348
200,Saint Joseph,39.7686,-94.8466,46.99,61,40,21.85,US,1618846349
201,Port-Cartier,50.0334,-66.8654,53.6,37,75,6.91,CA,1618846349
202,George Town,5.4112,100.3354,82.0,83,40,9.22,MY,1618846108
203,Iisalmi,63.5592,27.1907,53.6,32,0,3.44,FI,1618846349
204,Souillac,-20.5167,57.5167,80.6,83,75,8.05,MU,1618846350
205,Ishigaki,24.3448,124.1572,70.66,66,15,17.78,JP,1618846350
206,Cabo San Lucas,22.8909,-109.9124,75.99,55,69,5.01,MX,1618846128
207,Kavieng,-2.5744,150.7967,81.52,80,97,10.09,PG,1618846351
208,Morehead,37.2711,-87.1764,57.2,67,1,3.44,US,1618846351
209,Kavaratti,10.5669,72.642,84.6,70,25,6.89,IN,1618846315
210,Clyde River,70.4692,-68.5914,6.8,85,90,21.85,CA,1618846351
211,Malumfashi,11.7853,7.6218,99.39,14,100,7.25,NG,1618846352
212,Koumac,-20.5667,164.2833,76.5,83,74,5.12,NC,1618846352
213,Bathsheba,13.2167,-59.5167,86.0,51,40,23.02,BB,1618846308
214,Paidha,2.4167,30.9855,68.92,68,97,4.41,UG,1618846352
215,Banjar,-8.19,114.9675,82.4,78,20,6.91,ID,1618846353
216,Khatanga,71.9667,102.5,-11.51,99,53,2.71,RU,1618846353
217,Marsh Harbour,26.5412,-77.0636,81.27,66,100,17.69,BS,1618846354
218,Tāndā,26.55,82.65,87.4,13,0,7.54,IN,1618846354
219,Salym,60.0625,71.4789,14.14,81,56,2.08,RU,1618846354
220,Taraz,42.9,71.3667,62.6,36,90,2.24,KZ,1618846071
221,Mombetsu,44.3525,143.3525,37.99,80,44,3.0,JP,1618846355
222,Miandrivazo,-19.5167,45.4667,80.6,63,47,2.15,MG,1618846355
223,Lata,40.1629,-8.3327,64.99,57,100,11.01,PT,1618846355
224,Prieska,-29.6641,22.7474,78.49,24,30,3.33,ZA,1618846355
225,Srednekolymsk,67.45,153.6833,15.62,81,75,7.99,RU,1618846356
226,Nacala,-14.5428,40.6728,78.8,69,75,13.8,MZ,1618846356
227,Ahipara,-35.1667,173.1667,62.64,87,100,11.41,NZ,1618846356
228,Caluquembe,-13.7833,14.6833,70.25,51,82,3.24,AO,1618846357
229,Gelibolu,40.4103,26.6708,59.0,94,75,9.22,TR,1618846357
230,Caravelas,-17.7125,-39.2481,84.51,64,20,10.25,BR,1618846358
231,Muscat,23.6139,58.5922,82.4,69,0,3.44,OM,1618846196
232,Nikolskoye,59.7035,30.7861,52.0,28,0,11.18,RU,1618846358
233,Ca Mau,9.1769,105.15,79.83,83,78,4.27,VN,1618846215
234,Kismayo,-0.3582,42.5454,82.96,72,54,11.36,SO,1618846141
235,Găgeşti,46.3333,27.9667,52.95,66,94,4.29,RO,1618846359
236,Katsuura,35.1333,140.3,59.0,63,20,3.44,JP,1618846305
237,Rawson,-43.3002,-65.1023,78.82,50,60,26.87,AR,1618846237
238,Port Augusta,-32.5,137.7667,55.99,71,6,5.75,AU,1618846359
239,Gorgan,36.8387,54.4348,66.2,63,75,6.91,IR,1618846359
240,Bud,39.447,-86.1758,60.01,47,1,5.75,US,1618846360
241,Ararat,39.8317,44.7049,75.2,29,92,2.3,AM,1618846360
242,Banfora,10.6333,-4.7667,101.35,21,99,5.39,BF,1618846360
243,Vestmanna,62.1564,-7.1664,41.0,93,75,9.22,FO,1618846360
244,Yatou,37.15,122.3833,50.27,75,1,10.47,CN,1618846361
245,Tjæreborg,55.4646,8.5797,64.4,32,12,6.91,DK,1618846361
246,Diu,20.7141,70.9822,81.59,68,59,13.0,IN,1618846362
247,Sambava,-14.2667,50.1667,77.81,84,35,15.28,MG,1618846362
248,Hasaki,35.7333,140.8333,48.2,93,20,2.3,JP,1618846362
249,Sosnovo-Ozerskoye,52.5249,111.5418,33.58,41,49,8.32,RU,1618846363
250,Zhigansk,66.7697,123.3711,-1.89,99,38,7.16,RU,1618846363
251,San Juan,-31.5375,-68.5364,83.68,40,4,11.97,AR,1618846363
252,Ulladulla,-35.35,150.4667,57.2,62,17,9.22,AU,1618846364
253,Narsaq,60.9167,-46.05,39.2,33,40,3.44,GL,1618846364
254,Kingaroy,-26.5333,151.8333,48.2,93,0,4.61,AU,1618846364
255,Ketchikan,55.3422,-131.6461,46.4,81,1,2.15,US,1618846365
256,Zeya,53.75,127.2667,22.32,56,1,17.83,RU,1618846365
257,Xining,36.6167,101.7667,42.21,64,99,1.52,CN,1618846365
258,Barabai,-2.5833,115.3833,74.41,83,97,1.23,ID,1618846366
259,Grão Mogol,-16.5594,-42.8897,80.64,51,56,3.33,BR,1618846366
260,Lalawigan,11.5892,125.4697,78.22,82,100,15.3,PH,1618846366
261,Mauá,-23.6678,-46.4614,73.0,69,63,3.0,BR,1618846367
262,Bagan,54.1001,77.6646,23.61,47,89,11.39,RU,1618846367
263,The Valley,18.217,-63.0578,84.2,65,20,16.11,AI,1618846368
264,Biryusinsk,55.9634,97.8235,19.96,77,100,21.77,RU,1618846368
265,Corsicana,32.0954,-96.4689,64.99,55,1,6.91,US,1618846368
266,Polson,47.6936,-114.1632,28.99,94,7,6.62,US,1618846196
267,Bend,44.0582,-121.3153,50.0,43,8,5.01,US,1618846368
268,Sola,-13.8833,167.55,82.24,77,82,11.54,VU,1618846369
269,San Policarpo,12.1791,125.5072,78.76,78,100,23.47,PH,1618846369
270,Abu Kamal,34.4506,40.9171,91.18,13,100,3.91,SY,1618846369
271,Southbridge,42.0751,-72.0334,63.0,38,13,5.86,US,1618846370
272,Gillette,44.2911,-105.5022,23.0,86,90,8.05,US,1618846370
273,Okhotsk,59.3833,143.3,32.27,95,100,24.79,RU,1618846370
274,Paso de Carrasco,-34.8603,-56.0522,73.4,56,0,10.36,UY,1618846371
275,San Miguel de Tucumán,-26.8241,-65.2226,78.8,69,40,2.3,AR,1618846323
276,North Bend,43.4065,-124.2243,44.6,93,90,1.92,US,1618846371
277,Hofn,64.2539,-15.2082,42.8,65,20,14.97,IS,1618846371
278,Husavik,66.0449,-17.3389,42.8,36,20,16.11,IS,1618846372
279,Emerald,-23.5333,148.1667,66.2,63,0,6.91,AU,1618846372
280,Hokitika,-42.7167,170.9667,51.12,85,81,5.17,NZ,1618846372
281,Inuvik,68.3499,-133.7218,37.4,52,100,3.44,CA,1618846347
282,Lithgow,-33.4833,150.15,54.0,68,15,4.36,AU,1618846373
283,Bintulu,3.1667,113.0333,78.8,94,20,4.61,MY,1618846373
284,Kholtoson,50.2981,103.3097,41.88,33,54,5.5,RU,1618846374
285,Babat,-7.1128,112.1635,74.7,87,67,5.1,ID,1618846374
286,Leningradskiy,69.3833,178.4167,9.93,85,4,6.24,RU,1618846375
287,Kaitangata,-46.2817,169.8464,48.99,75,42,3.0,NZ,1618846375
288,Launceston,-41.45,147.1667,57.0,94,90,19.57,AU,1618846375
289,Bethel,41.3712,-73.414,64.0,36,40,5.64,US,1618846376
290,Suez,29.9737,32.5263,86.14,27,100,9.89,EG,1618846376
291,La Ronge,55.1001,-105.2842,30.2,55,90,10.36,CA,1618846376
292,Brovary,50.5,30.7667,55.0,50,20,8.95,UA,1618846377
293,Buchanan,5.8808,-10.0467,82.4,83,75,8.41,LR,1618846377
294,Ribeira Grande,38.5167,-28.7,64.4,88,40,12.66,PT,1618846377
295,Puro,12.4841,123.3827,77.88,84,100,18.1,PH,1618846378
296,Banda Aceh,5.5577,95.3222,78.94,76,98,6.42,ID,1618846378
297,Tuatapere,-46.1333,167.6833,48.0,84,30,7.52,NZ,1618846378
298,Poum,-20.2333,164.0167,78.66,79,22,9.55,NC,1618846379
299,Angarsk,52.5367,103.8864,37.4,48,0,15.66,RU,1618846379
300,Saint-Pierre,-21.3393,55.4781,77.0,88,75,13.8,RE,1618846380
301,Aklavik,68.2191,-135.0107,37.4,52,100,3.44,CA,1618846380
302,Nizhniy Kislyay,50.8497,40.1719,54.54,56,100,3.98,RU,1618846380
303,Muros,42.7762,-9.0603,64.0,62,79,5.1,ES,1618846381
304,Kruisfontein,-34.0033,24.7314,59.0,91,100,3.0,ZA,1618846381
305,At-Bashi,41.1702,75.8106,44.94,49,72,3.0,KG,1618846381
306,Cockburn Town,21.4612,-71.1419,82.4,69,40,16.11,TC,1618846382
307,Ilulissat,69.2167,-51.1,15.8,41,20,9.22,GL,1618846382
308,San Quintín,30.4833,-115.95,68.61,40,0,5.66,MX,1618846382
309,Andenes,69.3143,16.1194,50.0,57,0,18.41,NO,1618846383
310,Bonthe,7.5264,-12.505,87.44,62,91,11.03,SL,1618846383
311,Vila Velha,-20.3297,-40.2925,84.99,83,20,9.22,BR,1618846383
312,Waipawa,-41.4122,175.5153,62.01,82,20,19.57,NZ,1618846383
313,Mackay,-21.15,149.2,75.2,83,90,13.8,AU,1618846384
314,Ibrā’,22.6906,58.5334,83.8,15,10,5.35,OM,1618846384
315,Nurota,40.5614,65.6886,71.6,30,100,6.91,UZ,1618846384
316,Muroto-misakicho,33.2833,134.15,58.24,58,0,6.6,JP,1618846385
317,Qorveh,35.1664,47.8045,64.24,30,97,12.5,IR,1618846385
318,Rock Sound,24.9,-76.2,78.21,87,14,13.22,BS,1618846385
319,Udimskiy,61.1417,45.9144,36.52,53,0,3.67,RU,1618846386
320,Palmer,42.1584,-72.3287,64.0,50,20,3.44,US,1618846386
321,Klaksvík,62.2266,-6.589,41.0,93,75,9.22,FO,1618846386
322,Sept-Îles,50.2001,-66.3821,53.6,37,75,6.91,CA,1618846210
323,Naze,28.3667,129.4833,60.84,63,62,8.05,JP,1618846387
324,Odda,60.0691,6.5457,55.0,59,97,3.0,NO,1618846387
325,Beroroha,-21.6667,45.1667,74.41,63,63,3.09,MG,1618846388
326,Yurga,55.7231,84.8861,16.95,77,100,9.82,RU,1618846388
327,Imbituba,-28.24,-48.6703,75.2,83,75,11.5,BR,1618846388
328,Hammerfest,70.6634,23.6821,48.2,57,0,4.61,NO,1618846388
329,Beloha,-25.1667,45.05,69.39,72,0,15.23,MG,1618846389
330,Whitefish,48.4111,-114.3376,35.6,51,1,11.5,US,1618846113
331,Chikmagalūr,13.3167,75.7833,71.2,85,58,6.93,IN,1618846389
332,Fayetteville,35.0527,-78.8784,63.0,59,90,16.11,US,1618846180
333,Luena,-11.7833,19.9167,78.8,65,75,4.61,AO,1618846213
334,Belaya Gora,68.5333,146.4167,18.19,87,99,12.68,RU,1618846390
335,Mazatlan,25.2,-99.8167,64.17,41,29,4.92,MX,1618846265
336,Manuk Mangkaw,4.8,119.85,83.14,72,92,5.01,PH,1618846390
337,Gamba,-2.65,10.0,81.28,80,95,5.82,GA,1618846391
338,Kapuskasing,49.4169,-82.4331,35.6,69,100,6.91,CA,1618846391
339,Tabas,33.5959,56.9244,79.56,18,31,13.42,IR,1618846391
340,Luchegorsk,46.4764,134.2569,43.93,35,90,18.7,RU,1618846392
341,Wanaraja,-7.1749,107.9808,69.01,94,47,1.99,ID,1618846392
342,Yumen,40.2833,97.2,56.88,27,85,9.06,CN,1618846392
343,Birjand,32.8663,59.2211,71.6,16,40,16.11,IR,1618846392
344,Faya,18.3851,42.4509,64.4,39,40,6.91,SA,1618846393
345,Mosquera,4.7059,-74.2302,62.6,39,75,6.91,CO,1618846237
346,Khasan,42.4308,130.6434,55.42,47,0,16.84,RU,1618846393
347,Hirado,33.3597,129.5531,53.01,30,0,7.61,JP,1618846393
348,Heraclea,37.5133,34.0467,74.19,24,100,16.8,TR,1618846394
349,Grand Forks,47.9417,-97.4337,30.99,54,1,18.41,US,1618846316
350,Havøysund,70.9963,24.6622,48.2,57,0,4.61,NO,1618846394
351,Nishihara,26.1842,127.7558,68.0,56,75,6.91,JP,1618846395
352,Kyren,51.6828,102.1408,45.27,41,98,3.27,RU,1618846395
353,El Dorado,38.7666,-120.5177,64.4,27,1,6.91,US,1618846234
354,Ulaangom,49.9811,92.0667,51.24,34,58,4.38,MN,1618846395
355,Aginskoye,51.1,114.53,35.65,28,5,14.23,RU,1618846396
356,Aksay,47.26,39.87,57.2,77,20,4.47,RU,1618846396
357,Saint George,37.1041,-113.5841,59.0,19,1,4.61,US,1618846396
358,Port Lincoln,-34.7333,135.8667,60.51,70,20,12.8,AU,1618846397
359,Los Llanos de Aridane,28.6585,-17.9182,71.6,64,20,13.8,ES,1618846397
360,Talnakh,69.4865,88.3972,-11.29,98,40,1.28,RU,1618846397
361,Elko,41.0002,-115.5012,53.01,33,1,3.44,US,1618846398
362,Skibbereen,51.55,-9.2667,46.4,93,75,10.36,IE,1618846398
363,Ust'-Kan,50.9276,84.761,23.07,92,100,5.1,RU,1618846398
364,Carutapera,-1.195,-46.02,77.36,90,98,4.94,BR,1618846399
365,Nyurba,63.2842,118.3319,-2.83,99,49,2.46,RU,1618846399
366,Tevaitoa,-16.7833,-151.5,81.75,70,2,12.37,PF,1618846399
367,Toppenish,46.3774,-120.3087,52.0,38,29,6.2,US,1618846400
368,Corinth,37.9407,22.9573,59.0,57,13,11.99,GR,1618846400
369,Saskylakh,71.9167,114.0833,-13.45,100,86,4.14,RU,1618846400
370,Sibu,2.3,111.8167,77.0,88,40,4.61,MY,1618846401
371,Sur,22.5667,59.5289,82.54,61,62,2.55,OM,1618846401
372,Verkhnevilyuysk,63.4453,120.3167,-4.67,100,70,0.69,RU,1618846401
373,Ponta do Sol,32.6667,-17.1,68.0,60,1,5.01,PT,1618846402
374,Itarema,-2.9248,-39.9167,82.4,74,94,5.7,BR,1618846402
375,Kieta,-6.2167,155.6333,79.05,86,96,4.07,PG,1618846402
376,Balyqshy,47.0667,51.8667,66.2,42,40,11.18,KZ,1618846403
377,Peniche,39.3558,-9.3811,64.99,73,40,8.01,PT,1618846403
378,Vicksburg,32.3526,-90.8779,64.4,55,1,3.44,US,1618846403
379,Kitimat,54.0524,-128.6534,44.01,64,2,4.12,CA,1618846202
380,Lorengau,-2.0226,147.2712,81.57,77,94,8.99,PG,1618846386
381,Hualmay,-11.0964,-77.6139,73.45,71,99,8.68,PE,1618846404
382,Gogrial,8.5332,28.1004,98.11,20,100,7.72,SS,1618846404
383,Maningrida,-12.0667,134.2667,76.06,74,82,6.64,AU,1618846404
384,Sumbe,-11.2061,13.8437,86.0,76,20,6.91,AO,1618846405
385,Mergen,49.1833,125.2167,32.86,47,0,6.35,CN,1618846405
386,Khāsh,28.2211,61.2158,64.99,41,94,8.99,IR,1618846405
387,Bayan,46.0833,127.4,40.78,27,0,15.68,CN,1618846407
388,Barinas,8.6226,-70.2075,90.75,39,99,9.62,VE,1618846407
389,Berdigestyakh,62.0989,126.6992,5.81,97,91,4.85,RU,1618846407
390,Mollendo,-17.0231,-72.0147,71.8,70,23,7.54,PE,1618846408
391,Teutônia,-29.4481,-51.8064,78.01,57,2,5.99,BR,1618846408
392,Deniliquin,-35.5333,144.9667,59.0,57,27,6.35,AU,1618846409
393,Sinnamary,5.3833,-52.95,79.92,79,98,10.45,GF,1618846409
394,Tauá,-5.9667,-40.3,81.84,65,98,4.43,BR,1618846409
395,Booué,-0.0921,11.9385,79.32,83,100,2.1,GA,1618846410
396,Le Vauclin,14.5452,-60.8388,86.0,58,40,18.41,MQ,1618846410
397,Kalispell,48.1958,-114.3129,37.0,51,1,11.5,US,1618846410
398,Portland,45.5234,-122.6762,55.0,71,20,3.44,US,1618846223
399,Sompeta,18.9333,84.6,81.32,84,6,13.67,IN,1618846411
400,Ostrovnoy,68.0531,39.5131,39.42,90,89,18.34,RU,1618846411
401,Presidente Franco,-25.5333,-54.6167,80.6,57,0,6.91,PY,1618846411
402,Charqueadas,-29.9547,-51.6253,78.8,50,40,11.5,BR,1618846412
403,Salinópolis,-0.6136,-47.3561,80.67,81,56,2.26,BR,1618846413
404,Acarigua,9.5545,-69.1956,91.96,34,99,5.41,VE,1618846413
405,Dalbandin,28.8947,64.4101,77.59,24,100,8.95,PK,1618846414
406,Tighnabruaich,55.9016,-5.2398,59.0,51,100,11.5,GB,1618846414
407,Arrondissement de Beauvais,49.4167,2.0,62.6,45,0,3.44,FR,1618846414
408,Paamiut,61.994,-49.6678,33.94,77,100,17.31,GL,1618846415
409,Inhambane,-23.865,35.3833,78.01,61,20,8.37,MZ,1618846415
410,Khovd,48.0056,91.6419,50.54,31,95,15.05,MN,1618846415
411,Dunedin,-45.8742,170.5036,54.0,79,2,1.01,NZ,1618846339
412,Nanchang,28.6833,115.8833,62.62,73,95,1.32,CN,1618846415
413,Saint Anthony,45.0205,-93.218,35.6,64,90,16.11,US,1618846416
414,Point Fortin,10.1833,-61.6833,87.01,71,19,4.0,TT,1618846205
415,La Plaine,15.3333,-61.25,86.0,54,40,10.36,DM,1618846416
416,Chui,-33.6971,-53.4616,72.01,56,79,11.34,UY,1618846416
417,Rio Claro,-22.4114,-47.5614,80.01,61,40,11.5,BR,1618846417
418,Bowmore,34.9421,-79.3031,66.2,55,20,13.8,US,1618846417
419,Bogandinskiy,56.8937,65.8938,30.2,37,0,6.71,RU,1618846418
420,Arlit,18.7369,7.3853,106.16,3,3,4.25,NE,1618846418
421,Santa Fe,-31.6333,-60.7,81.0,63,0,4.0,AR,1618846238
422,Santa Maria,-29.6842,-53.8069,75.2,60,40,14.97,BR,1618846418
423,Assiniboia,49.6334,-105.9845,30.2,55,67,5.75,CA,1618846419
424,Kango,0.1943,10.0951,77.77,93,100,2.53,GA,1618846419
425,Baijiantan,45.6333,85.1833,59.67,48,82,10.85,CN,1618846419
426,Charter Township of Clinton,42.587,-82.9199,62.01,44,20,8.05,US,1618846214
427,Coquimbo,-29.9533,-71.3436,57.2,82,90,2.3,CL,1618846420
428,Opuwo,-18.0607,13.84,82.8,28,9,9.8,NA,1618846420
429,Virginia Beach,36.8529,-75.978,69.8,56,40,11.5,US,1618846143
430,Mandera,3.9366,41.867,83.5,61,99,10.63,KE,1618846420
431,Rojhan,28.6868,69.9534,88.45,22,100,17.38,PK,1618846421
432,Ngunguru,-35.6167,174.5,62.01,91,100,7.0,NZ,1618846421
433,Korla,41.7597,86.1469,66.02,30,100,10.76,CN,1618846421
434,Çubuk,40.2386,33.0322,66.99,72,75,2.3,TR,1618846422
435,Fajardo,18.3258,-65.6524,84.2,65,1,12.66,PR,1618846422
436,Little Current,45.9793,-81.9248,48.99,87,100,16.11,CA,1618846202
437,Morón,-34.6534,-58.6198,75.99,62,1,5.99,AR,1618846423
438,São José da Coroa Grande,-8.8978,-35.1478,83.21,69,59,8.72,BR,1618846423
439,Lodja,-3.4833,23.4333,74.68,93,99,2.51,CD,1618846423
440,Kalat,29.0225,66.5916,54.54,62,100,4.14,PK,1618846423
441,Buala,-8.145,159.5921,80.96,80,73,6.85,SB,1618846424
442,Corumbá,-19.0092,-57.6533,86.0,66,40,5.75,BR,1618846424
443,Margate,51.3813,1.3862,54.0,48,0,1.99,GB,1618846260
444,Sørland,67.667,12.6934,46.4,76,0,12.66,NO,1618846424
445,Kodār,16.9833,79.9667,88.57,49,46,12.5,IN,1618846425
446,Port Hardy,50.6996,-127.4199,48.2,93,40,5.88,CA,1618846207
447,Nouakchott,18.0858,-15.9785,86.0,37,16,16.11,MR,1618846398
448,Rondonópolis,-16.4708,-54.6356,92.26,38,54,4.43,BR,1618846425
449,Caçapava do Sul,-30.5122,-53.4914,75.24,36,4,8.25,BR,1618846426
450,Luorong,24.4058,109.6086,65.25,95,100,3.49,CN,1618846426
451,Griffith,41.5284,-87.4237,55.0,54,75,11.5,US,1618846426
452,Luzhou,28.8724,105.4405,59.65,95,100,2.51,CN,1618846427
453,Emba,48.8264,58.1442,35.96,81,100,20.92,KZ,1618846427
454,Batemans Bay,-35.7167,150.1833,55.99,93,13,4.0,AU,1618846208
455,Isangel,-19.55,169.2667,78.53,86,26,3.69,VU,1618846427
456,Kysyl-Syr,63.8986,122.7617,-3.55,99,67,3.29,RU,1618846428
457,Jaisalmer,26.9147,70.9181,85.8,28,88,19.57,IN,1618846428
458,Gornopravdinsk,60.05,69.9,13.78,84,54,2.33,RU,1618846428
459,Laguna,38.421,-121.4238,61.0,76,1,5.75,US,1618846429
460,São Miguel do Araguaia,-13.275,-50.1628,86.09,56,35,2.37,BR,1618846429
461,Abonnema,4.7084,6.7931,80.6,94,75,3.44,NG,1618846429
462,Nara,34.6851,135.8049,54.0,82,0,3.13,JP,1618846330
463,Fuerte Olimpo,-21.0415,-57.8738,99.1,25,0,0.81,PY,1618846430
464,Provincia di Grosseto,42.8333,11.25,60.8,55,20,9.22,IT,1618846430
465,Kiama,-34.6833,150.8667,53.01,79,9,1.01,AU,1618846431
466,Kamina,-8.7386,24.9906,69.1,83,100,3.85,CD,1618846431
467,Nuristan,35.3,70.8333,26.73,59,84,7.74,AF,1618846431
468,Miyako,39.6367,141.9525,47.35,77,1,6.91,JP,1618846432
469,Pangoa,-12.1167,-73.0,77.16,84,96,1.5,PE,1618846432
470,Sidmouth,50.6909,-3.2397,59.0,44,0,8.05,GB,1618846433
471,Kathmandu,27.7167,85.3167,66.2,59,20,3.44,NP,1618846141
472,Barcelona,41.3888,2.159,61.0,72,20,14.97,ES,1618846433
473,Ţalkhā,31.0539,31.3779,93.81,12,98,7.49,EG,1618846433
474,Taoudenni,22.6783,-3.9836,96.28,4,80,11.83,ML,1618846434
475,Departamento de Maldonado,-34.6667,-54.9167,73.0,68,20,12.66,UY,1618846226
476,Vostok,46.4856,135.8833,36.86,86,76,13.67,RU,1618846434
477,Ayan,56.45,138.1667,30.65,97,100,18.32,RU,1618846434
478,Santiago,-33.4569,-70.6483,69.01,55,3,3.44,CL,1618846200
479,Kahului,20.8947,-156.47,66.0,100,1,6.91,US,1618846435
480,Dingle,10.9995,122.6711,76.84,81,100,6.35,PH,1618846435
481,Prince Rupert,54.3161,-130.3201,53.6,57,1,3.96,CA,1618846239
482,Uusikaupunki,60.8004,21.4084,60.8,25,0,6.91,FI,1618846435
483,Gizo Government Station,-8.103,156.8419,82.51,78,100,1.57,SB,1618846436
484,Panama City,8.9936,-79.5197,87.8,66,40,4.61,PA,1618846436
485,Praia,14.9215,-23.5087,80.6,50,20,23.02,CV,1618846436
486,Linguère,15.3953,-15.1193,109.4,11,0,4.61,SN,1618846437
487,Cooma,-36.2333,149.1333,32.0,93,0,3.44,AU,1618846437
488,Hirara,24.8,125.2833,69.87,66,12,20.33,JP,1618846437
489,Vitim,59.4511,112.5578,20.68,79,100,7.2,RU,1618846438
490,Metro,-5.1131,105.3067,75.61,88,73,3.38,ID,1618846339
491,Progreso,21.2833,-89.6667,88.0,67,2,0.81,MX,1618846438
492,Nha Trang,12.25,109.1833,82.4,74,40,3.44,VN,1618846438
493,Qasigiannguit,68.8193,-51.1922,15.8,41,20,9.22,GL,1618846439
494,Leh,34.1667,77.5833,32.13,32,4,4.03,IN,1618846439
495,Meulaboh,4.1363,96.1285,76.35,85,100,5.79,ID,1618846439
496,Pyapon,16.2833,95.6833,82.81,65,82,8.39,MM,1618846439
497,Yelan',50.949,43.7378,49.68,82,100,11.74,RU,1618846440
498,Sabha,27.0377,14.4283,82.98,21,0,13.73,LY,1618846440
499,Maragogi,-9.0122,-35.2225,82.94,71,62,9.01,BR,1618846440
500,Lethem,3.3803,-59.7968,84.2,70,40,13.8,GY,1618846441
501,Pisco,-13.7,-76.2167,72.0,78,6,9.22,PE,1618846441
502,Shāhpur,16.7,76.8333,95.99,18,34,6.62,IN,1618846441
503,Makakilo City,21.3469,-158.0858,69.8,82,20,4.61,US,1618846441
504,Oktyabr'skoye,43.0645,44.7417,68.0,52,66,15.66,RU,1618846442
505,Cidreira,-30.1811,-50.2056,73.29,61,62,9.57,BR,1618846442
506,Calvinia,-31.4707,19.776,77.16,29,61,10.71,ZA,1618846443
507,Nizhniy Baskunchak,48.2198,46.8311,55.45,85,100,7.16,RU,1618846443
508,Marawi,7.9986,124.2928,77.0,78,97,4.0,PH,1618846443
509,Churapcha,62.0025,132.4325,17.19,93,100,10.85,RU,1618846444
510,Beringovskiy,63.05,179.3167,14.92,98,57,5.26,RU,1618846444
511,Shelburne,44.0787,-80.2041,60.01,44,34,15.95,CA,1618846444
512,Săcel,47.6333,24.4333,46.18,87,97,1.16,RO,1618846445
513,Uruçuí,-7.2294,-44.5561,73.15,94,100,3.47,BR,1618846445
514,Edelira,-26.75,-55.2667,83.88,39,0,3.51,PY,1618846445
515,Buin,-33.7333,-70.75,69.01,55,4,3.44,CL,1618846446
516,Darnah,32.767,22.6367,60.94,75,84,22.46,LY,1618846446
517,Port Hedland,-20.3167,118.5667,75.2,69,3,3.44,AU,1618846446
518,Tupik,54.4253,119.9327,11.32,89,4,1.21,RU,1618846447
519,Angoche,-16.2325,39.9086,76.55,66,43,9.66,MZ,1618846447
520,Kimberley,-28.7323,24.7623,82.4,17,0,4.61,ZA,1618846447
521,Oktyabr'skiy,54.4815,53.471,40.1,54,100,10.83,RU,1618846448
522,Kadoma,34.7333,135.5833,54.0,61,0,3.67,JP,1618846448
523,Natal,-5.795,-35.2094,87.8,62,40,11.5,BR,1618846449
524,Senanga,-16.1167,23.2667,75.07,44,11,5.28,ZM,1618846449
525,Merauke,-8.4667,140.3333,77.74,89,100,5.41,ID,1618846450
526,Kaeo,-35.1,173.7833,62.01,91,100,7.0,NZ,1618846450
527,Russell,32.3502,-85.1999,64.4,39,1,10.36,US,1618846203
528,Hambantota,6.1241,81.1185,82.4,89,75,6.91,LK,1618846450
529,Yenagoa,4.9247,6.2642,88.47,59,94,7.23,NG,1618846450
530,Kirakira,-10.4544,161.9205,80.47,84,20,6.22,SB,1618846451
531,Piaçabuçu,-10.4056,-36.4344,83.8,68,56,9.69,BR,1618846451
532,Buritis,-15.6178,-46.4233,89.69,38,38,3.06,BR,1618846452
533,Sobolevo,54.4299,31.8996,47.05,79,100,9.75,RU,1618846452
534,Pangnirtung,66.1451,-65.7125,15.8,67,75,10.36,CA,1618846452
535,Puerto Escondido,15.85,-97.0667,84.67,55,2,5.95,MX,1618846453
536,Berlevåg,70.8578,29.0864,48.2,40,0,13.8,NO,1618846453
537,Bordighera,43.7806,7.6645,57.0,58,71,15.01,IT,1618846454
538,Nong Khai,17.9167,103.0833,84.0,81,4,1.59,TH,1618846454
539,Mossamedes,-15.1961,12.1522,89.6,58,40,16.11,AO,1618846454
540,Coruripe,-10.1256,-36.1756,84.27,65,79,10.47,BR,1618846455
541,La Paz,-16.5,-68.15,58.01,27,0,4.97,BO,1618846204
542,Buluang,13.3068,123.3425,76.19,90,100,12.97,PH,1618846455
543,Port Macquarie,-31.4333,152.9167,55.0,97,7,1.01,AU,1618846455
544,Karratha,-20.7377,116.8463,80.74,53,0,8.41,AU,1618846456
545,Forrest City,35.0081,-90.7898,59.0,55,1,3.44,US,1618846456
546,Viedma,-40.8135,-62.9967,80.96,47,20,23.26,AR,1618846456
547,Rush,53.5223,-6.0931,57.0,58,75,8.05,IE,1618846456
548,Plácido de Castro,-10.3353,-67.1856,85.71,63,100,3.62,BR,1618846457
549,Tarrafal,15.2833,-23.7667,80.6,50,20,23.02,CV,1618846457
550,Auki,-8.7676,160.7034,77.88,88,22,3.89,SB,1618846457
551,Misratah,32.3754,15.0925,62.35,59,52,18.72,LY,1618846458
552,Shache,38.4167,77.2406,64.81,14,6,6.04,CN,1618846458
553,Esna,25.2934,32.554,105.8,12,0,6.91,EG,1618846458
554,Grants Pass,42.439,-123.3284,52.0,61,1,0.6,US,1618846459
555,Laas,46.6166,10.7002,62.6,22,75,5.75,IT,1618846459
556,Sitka,57.0531,-135.33,46.4,71,1,3.49,US,1618846389
557,Vidim,56.4088,103.1106,20.93,84,87,18.37,RU,1618846459
558,Praia,14.9215,-23.5087,80.6,50,20,23.02,CV,1618846460
559,Balkanabat,39.5108,54.3671,73.54,37,31,9.71,TM,1618846460
560,Zhangye,38.9342,100.4517,53.4,36,54,4.38,CN,1618846461
561,Lompoc,34.6391,-120.4579,61.0,93,0,6.91,US,1618846461
